UTC	Pack_count	q0	q1	q2	q3	RollRate	PitchRate	YawRate	Roll	Pitch	Yaw	FreeAccX	FreeAccY	FreeAccZ	Lat	Long	Height	VelX	VelY	VelZ	LoRaRSSI	LoRaSNR
30:02:13:15	228	-0.8642	-0.00087598	-0.00028042	0.50314	0.0020275	0.007431	-0.0035267	0.07058	0.0782759	-60.4164	0.00024724	-0.010925	-0.0090714	22.17494	120.8926	31.42645	-0.003273	0.0010977	0.0006876	-97	3
30:02:13:35	229	-0.86421	-0.00085815	-0.00026731	0.50313	0.0004046	0.007431	-0.0016785	0.0695726	0.0759484	-60.4142	-0.0066605	-0.020844	-0.011887	22.17494	120.8926	31.38869	-0.0026054	0.00089025	-0.0057411	-97	2.75
30:02:13:54	230	-0.86424	-0.00087375	-0.00029956	0.50308	0.00031877	0.0091324	-0.0043831	0.0692621	0.0800371	-60.408	-0.0033855	0.0091476	0.0018778	22.17494	120.8926	31.40143	-0.0013304	0.00018036	-0.0048065	-98	3
30:02:13:74	231	-0.86424	-0.00084257	-0.00028989	0.50308	0.0028095	0.0039177	0.00099754	0.0667314	0.077283	-60.4084	-0.039551	0.018738	0.012962	22.17494	120.8926	31.40756	-0.0042343	0.00020969	-0.0055771	-97	3
30:02:13:93	232	-0.86415	-0.00082082	-0.00026479	0.50323	0.0017614	0.0072212	-0.0054131	0.0660116	0.0735545	-60.428	0.0041351	-0.033508	-0.014877	22.17494	120.8926	31.41854	-0.0024796	0.0010452	-0.0049019	-97	2.5
30:02:14:13	233	-0.86412	-0.00083482	-0.00028279	0.50328	0.0024548	0.0038757	0.0018044	0.0663563	0.076148	-60.434	0.0097733	-0.023392	-0.014526	22.17494	120.8926	31.42301	-0.0016508	0.0017042	-0.0021114	-97	2.75
30:02:14:33	234	-0.8641	-0.00081264	-0.00034372	0.50332	0.0016165	0.0072556	-0.0052261	0.0606427	0.0809043	-60.4394	-0.028427	-0.00033092	0.00028896	22.17494	120.8926	31.38743	-0.0026474	0.0012474	-0.0085449	-97	2.75
30:02:14:52	235	-0.86421	-0.00079506	-0.00031856	0.50314	0.0035477	0.0034542	-7.10E-05	0.060369	0.0773866	-60.4158	-0.042755	0.0024529	0.0083466	22.17494	120.8926	31.39869	-0.0038605	0.00039721	-0.0028477	-97	3
30:02:14:72	236	-0.86409	-0.00082449	-0.00027393	0.50334	0.0046196	0.0040588	-0.0029049	0.0658387	0.074679	-60.4426	-0.0062141	-0.0095215	0.00034046	22.17494	120.8926	31.40889	-0.0026436	0.00054979	-0.0032997	-97	2.75
30:02:14:91	237	-0.86409	-0.00083537	-0.00026227	0.50334	0.0055428	0.0029335	-0.0030212	0.0675884	0.0741518	-60.4425	-0.026306	0.0030212	0.0016985	22.17494	120.8926	31.41677	-0.003027	0.0013704	-0.0033569	-97	2.75
30:02:15:11	238	-0.86409	-0.00080497	-0.00023878	0.50333	0.003849	0.0053558	-0.0028114	0.0659341	0.0700727	-60.4414	-0.04184	-0.027527	-0.0055351	22.17494	120.8926	31.38565	-0.0042915	0.0002625	-0.010406	-97	2.5
30:02:15:31	239	-0.86403	-0.00078326	-0.00034554	0.50345	0.0023861	0.0037479	0.0015535	0.0576169	0.0793987	-60.4566	-0.045471	0.016342	0.013077	22.17494	120.8926	31.39558	-0.0033092	0.0010405	-0.0098877	-97	2.5
30:02:15:50	240	-0.86404	-0.00076357	-0.00030789	0.50343	0.00019562	0.0076294	0.0010214	0.0578405	0.0745335	-60.454	-0.017853	-0.017242	0.0028973	22.17494	120.8926	31.40808	-0.0015726	0.0012474	-0.0078049	-97	2.75
30:02:15:70	241	-0.86391	-0.00078133	-0.00025914	0.50365	0.0069542	0.0023689	-0.0042725	0.0623927	0.0707475	-60.4837	-0.045532	-0.041351	-0.0018597	22.17494	120.8926	31.41681	-0.0020142	0.0022144	-0.0051994	-97	2.75
30:02:15:89	242	-0.8639	-0.00079539	-0.00027139	0.50367	0.0067787	0.00080681	-0.0016632	0.0630764	0.072774	-60.4861	-0.047241	0.020523	0.013847	22.17494	120.8926	31.43333	-0.0014629	0.0022488	-0.0007	-98	2.5
30:02:16:09	243	-0.86387	-0.00080102	-0.0003211	0.50372	0.00038266	0.0087509	-0.002924	0.06076	0.078022	-60.4922	-0.0078659	0.006176	-0.0023232	22.17494	120.8926	31.39814	-0.00033236	0.0020714	-0.0075989	-98	2.5
30:02:16:28	244	-0.86393	-0.00079443	-0.00025544	0.50361	0.0028839	0.0059357	-0.00078583	0.0639062	0.0711344	-60.478	-0.0029354	-0.031403	-0.010147	22.17494	120.8926	31.40907	0.00053978	0.00051069	-0.0050812	-97	2.75
30:02:16:48	245	-0.86393	-0.00080274	-0.00029193	0.50361	0.0053787	0.0054626	-0.0064888	0.0626244	0.0752263	-60.4776	-0.044128	0.0047531	0.015381	22.17494	120.8926	31.42067	-5.88E-05	0.0014696	-0.0045204	-97	3
30:02:16:68	246	-0.86393	-0.00080836	-0.00023752	0.50361	0.0074043	-0.00018132	-0.0010395	0.0663201	0.0701645	-60.4777	-0.019775	0.021576	0.010345	22.17494	120.8926	31.42873	-0.00037527	0.0011196	-0.0044518	-97	2.75
30:02:16:87	247	-0.8639	-0.00081797	-0.00026479	0.50367	0.00045776	0.0070915	-0.0011272	0.065692	0.0734231	-60.4859	0.033203	-0.012985	-0.0092239	22.17494	120.8926	31.3996	0.0019245	-0.00025749	-0.01136	-98	2.5
30:02:17:07	248	-0.86387	-0.00081822	-0.00031047	0.50372	0.0043335	0.0016298	0.0012779	0.0630763	0.0779623	-60.4923	-0.044098	0.0025196	0.0080566	22.17494	120.8926	31.41109	-0.00029063	-0.00021005	-0.0099792	-97	3.5
30:02:17:26	249	-0.86373	-0.00085339	-0.00020414	0.50395	0.0077858	0.0022373	-0.0054779	0.0726769	0.0694868	-60.5233	0.0051956	-0.0025768	-0.0044632	22.17494	120.8926	31.41753	-8.92E-05	0.0016584	-0.0093002	-98	3.25
30:02:17:46	250	-0.86362	-0.00085553	-0.00025797	0.50415	0.0043297	0.0029812	0.00017881	0.0697632	0.0749543	-60.5494	0.012665	0.031799	0.0083084	22.17494	120.8926	31.4255	0.0015354	0.0020313	-0.0042229	-97	3.5
30:02:17:66	251	-0.86372	-0.00083644	-0.00022341	0.50397	0.0051956	0.0008955	0.0023994	0.0698844	0.0704165	-60.5262	-0.011124	-0.016861	-0.0016966	22.17494	120.8926	31.42717	-0.00039339	0.00094461	-0.0038242	-97	3.25
30:02:17:85	252	-0.86368	-0.00080294	-0.00032768	0.50405	0.0052643	0.001195	0.00058031	0.0605409	0.0788076	-60.536	-0.071167	0.0010672	0.017624	22.17494	120.8926	31.38843	-0.00030851	0.0008359	-0.012253	-97	3.5
30:02:18:05	253	-0.86361	-0.0007998	-0.00024399	0.50415	0.0046997	0.0043678	-0.0052071	0.0650543	0.0703519	-60.5505	0.00037622	-0.033783	-0.014305	22.17494	120.8926	31.40361	0.00090122	0.0020142	-0.0067673	-97	3.25
30:02:18:25	254	-0.86359	-0.00082386	-0.00025895	0.50419	0.0057526	0.001565	-0.00080252	0.0665687	0.0732254	-60.5551	-1.54E-05	0.028198	0.01355	22.17494	120.8926	31.40538	0.0004673	0.0021324	-0.0094528	-98	3
30:02:18:44	255	-0.86355	-0.00079504	-0.00025027	0.50427	0.0036869	0.0031567	-0.00011653	0.0642109	0.070707	-60.5659	-0.037354	-0.0053291	0.005928	22.17494	120.8926	31.41699	-0.00093794	0.0038719	-0.0059853	-97	3
30:02:18:64	256	-0.86358	-0.00078011	-0.00032786	0.50422	0.0026474	0.005188	-0.0025749	0.0582557	0.0775183	-60.5588	-0.072449	-0.023438	0.0075912	22.17494	120.8926	31.42442	-0.0013247	0.0018816	-0.0033455	-97	3.25
30:02:18:83	257	-0.86356	-0.00078585	-0.00026917	0.50424	0.0071602	0.0030804	-0.0063095	0.0622119	0.0720437	-60.5623	-0.053162	0.00066137	0.017166	22.17494	120.8926	31.38745	-0.0022087	0.0025654	-0.010498	-97	3
30:02:19:03	258	-0.86349	-0.00079794	-0.00026285	0.50437	0.0074844	0.0051308	-0.0085678	0.0637633	0.0721263	-60.5786	-0.0087814	-0.027451	-0.0027752	22.17494	120.8926	31.40296	-0.0014076	0.0024185	-0.0056038	-97	2.5
30:02:19:23	259	-0.86342	-0.00081319	-0.00019855	0.50448	0.010231	0.00016356	-0.0040627	0.0689804	0.0666546	-60.5934	-0.027405	0.00073481	0.0072021	22.17494	120.8926	31.40405	-0.002367	0.0028954	-0.005455	-97	2.5
30:02:19:42	260	-0.86339	-0.00080081	-0.00022192	0.50453	0.0052567	0.0021896	-0.0021839	0.0663997	0.0682555	-60.6006	-0.033722	0.0074425	0.0025635	22.17494	120.8926	31.41467	-0.0029125	0.0043335	-0.0024967	-98	2.75
30:02:19:62	261	-0.86337	-0.00080401	-0.00026704	0.50458	0.0022068	0.0029678	0.0014915	0.0641039	0.072908	-60.6066	-0.0016241	-0.0033226	-0.0039043	22.17494	120.8926	31.37915	-0.0024548	0.0038719	-0.0091248	-97	2.5
30:02:19:82	262	-0.86345	-0.00079718	-0.00027868	0.50444	0.0031281	0.0057564	-0.0022907	0.0627668	0.0736543	-60.5882	-0.019226	-0.0059395	0.00014305	22.17494	120.8926	31.38047	-0.002594	0.0019722	-0.011261	-97	1.5
30:02:20:01	263	-0.86332	-0.00081062	-0.00023495	0.50465	0.0064392	0.00068283	-0.00068569	0.0666065	0.0701211	-60.6168	-0.033844	0.0071182	0.0063286	22.17494	120.8926	31.38599	-0.0036201	0.0037479	-0.0099411	-98	3
30:02:20:21	264	-0.86332	-0.00082297	-0.0002146	0.50465	0.0046501	0.0065155	-0.0053177	0.0690057	0.0688217	-60.6167	-0.014183	0.0037365	0.0051422	22.17494	120.8926	31.39321	-0.0043983	0.0031166	-0.0067177	-98	1.5
30:02:20:41	265	-0.86336	-0.00079343	-0.00025615	0.50459	0.0011921	0.0054436	0.0013971	0.0636857	0.0712197	-60.6087	-0.012787	-0.012634	0.00051689	22.17494	120.8926	31.40074	-0.0030804	0.002758	-0.0020981	-98	1.25
30:02:20:60	266	-0.86333	-0.00081169	-0.00029945	0.50465	0.0012627	0.0081253	-0.0043716	0.0629838	0.0765636	-60.6156	-0.015793	0.0050278	0.0078659	22.17494	120.8926	31.36388	-0.0028706	0.0029144	-0.0094681	-99	2.5
30:02:20:80	267	-0.8632	-0.00081923	-0.00028621	0.50485	0.0050468	0.0020199	-0.00047112	0.0644775	0.0757046	-60.6433	-0.02243	-0.0027294	0.0023918	22.17494	120.8926	31.36896	-0.0027714	0.0035477	-0.0056496	-97	4.5
30:02:20:99	268	-0.86326	-0.00080329	-0.00023516	0.50477	0.0054016	0.0058632	-0.004467	0.0658606	0.0697264	-60.6315	-0.0149	-0.0055313	0.009613	22.17494	120.8926	31.38526	-0.0041199	0.0028419	-0.00081682	-97	3
30:02:21:19	269	-0.86321	-0.00079237	-0.00023612	0.50484	0.0036201	0.0034142	0.00094986	0.0647192	0.0691952	-60.641	0.015419	0.010353	-0.0022469	22.17494	120.8926	31.38964	-0.0032368	0.0030899	-0.0016556	-98	2.5
30:02:21:39	270	-0.86316	-0.00079399	-0.0003453	0.50492	-0.0015478	0.010864	-0.0030918	0.0585554	0.0800947	-60.6524	-0.034241	-0.0090408	0.004921	22.17494	120.8926	31.3982	-0.0019779	0.0028458	-0.0014095	-97	2.75
30:02:21:58	271	-0.86317	-0.0007741	-0.00031679	0.50491	-0.0021248	0.010773	-0.0028896	0.0582391	0.0761231	-60.6511	-0.03598	-0.01226	0.0030422	22.17494	120.8926	31.36737	-0.0025234	0.0018816	-0.0073738	-97	3.25
30:02:21:78	272	-0.86309	-0.00079449	-0.00026935	0.50505	0.0031471	0.0064278	-0.0061684	0.0629894	0.0726199	-60.6693	-0.019226	-0.017593	-0.0011034	22.17494	120.8926	31.37488	-0.002121	0.0029316	-0.0050735	-98	2.75
30:02:21:98	273	-0.86302	-0.00082339	-0.00027922	0.50518	0.0026207	0.0049744	-0.0018682	0.0652653	0.0752785	-60.6861	-0.015419	-0.0037575	0.0078506	22.17494	120.8926	31.38451	-0.0013027	0.0029125	-0.001976	-97	2.5
30:02:22:17	274	-0.86296	-0.00082212	-0.00021459	0.50528	0.0025482	0.0058174	-0.0015812	0.0688723	0.0688217	-60.6997	-0.0073586	0.010956	0.0063324	22.17494	120.8926	31.38424	-0.0021057	0.003994	-0.0027885	-97	2.5
30:02:22:37	275	-0.86291	-0.00083077	-0.00027584	0.50536	0.0012932	0.0049477	0.0018034	0.0661735	0.0753858	-60.711	-0.009491	-0.0059433	-0.0022984	22.17494	120.8926	31.34865	-0.0020256	0.0028706	-0.010582	-97	2.25
30:02:22:56	276	-0.8629	-0.00080798	-0.00027981	0.50537	0.0025864	0.0032864	-7.75E-05	0.0636898	0.0744592	-60.7117	-0.015137	-0.009201	0.0035114	22.17494	120.8926	31.3516	-0.0017643	0.0024357	-0.010674	-97	2.5
30:02:22:76	277	-0.86275	-0.00082336	-0.00027254	0.50563	0.0069923	0.0019217	-0.0055504	0.065609	0.0746505	-60.7462	-0.030807	-0.031525	0.00085163	22.17494	120.8926	31.35378	-0.002533	0.0038929	-0.011658	-97	2.5
30:02:22:96	278	-0.86279	-0.00083261	-0.00021986	0.50557	0.0057106	0.0037231	-0.0040894	0.0695811	0.0699735	-60.7384	-0.020538	-0.009079	0.0034218	22.17494	120.8926	31.36242	-0.002573	0.0032158	-0.010262	-97	2.5
30:02:23:15	279	-0.86271	-0.00084038	-0.00030035	0.50571	0.0030937	0.0060349	-0.0044098	0.0656744	0.078392	-60.7564	-0.012856	-0.0095062	0.0057945	22.17494	120.8926	31.36922	-0.001297	0.0039787	-0.0086517	-98	2.25
30:02:23:35	280	-0.8627	-0.0008266	-0.00031074	0.50572	0.0080719	0.0012579	-0.0018167	0.0637082	0.0786218	-60.7583	-0.066833	-0.005825	0.021378	22.17494	120.8926	31.33402	-0.0043945	0.0029564	-0.016113	-97	2.75
30:02:23:54	281	-0.86266	-0.00080959	-0.00032151	0.50579	0.0041275	0.0069962	-0.005394	0.0613966	0.0787052	-60.7673	-0.069702	-0.0046463	0.019791	22.17494	120.8926	31.34024	-0.0017977	0.0024261	-0.011421	-97	2.5
30:02:23:74	282	-0.86262	-0.00083379	-0.00026849	0.50586	0.0063782	0.0015707	-0.0024719	0.0668557	0.074872	-60.7763	-0.026474	-0.033356	-0.015961	22.17494	120.8926	31.34353	-0.0022259	0.0031853	-0.0048828	-97	2.5
30:02:23:94	283	-0.86257	-0.0008784	-0.00028003	0.50594	0.0079422	0.0034065	-0.0053787	0.0705894	0.0786056	-60.7871	-0.040192	-0.0058937	0.0071449	22.17494	120.8926	31.3541	-0.0026207	0.0036755	-0.00081062	-97	2.25
30:02:24:13	284	-0.86252	-0.00085764	-0.00032957	0.50603	0.0065308	0.0047188	-0.0053062	0.0656566	0.0823054	-60.7992	-0.081055	-0.0036793	0.022537	22.17494	120.8926	31.36097	-0.0032291	0.0036983	0.0012321	-97	2.75
30:02:24:33	285	-0.8625	-0.0008841	-0.00023917	0.50606	0.0058365	0.0056496	-0.0057259	0.0735101	0.0749081	-60.8041	-0.0012474	-0.036407	-0.01123	22.17494	120.8926	31.33296	-0.0028725	0.0030384	-0.004055	-97	2.75
30:02:24:52	286	-0.86249	-0.00088993	-0.00031723	0.50607	0.0051994	0.0035076	-0.00033307	0.0695595	0.0829618	-60.8048	-0.0050392	-0.021088	-0.005928	22.17494	120.8926	31.34088	-0.00048971	0.0024414	-0.0027065	-97	3.25
30:02:24:72	287	-0.86249	-0.00087695	-0.00026971	0.50608	0.0093002	0.0031204	-0.0065079	0.0710313	0.077513	-60.8059	-0.055084	0.018036	0.01136	22.17494	120.8926	31.34189	-0.0010433	0.0020752	-0.0038185	-97	2.75
30:02:24:92	288	-0.86244	-0.00093857	-0.0002178	0.50615	0.01107	-0.0025158	-0.0015078	0.0801254	0.0759629	-60.8155	0.022552	-0.0019779	-0.013626	22.17494	120.8926	31.34588	-0.0021114	0.0010519	-0.0026913	-97	2.75
30:02:25:11	289	-0.86244	-0.00092596	-0.00023327	0.50616	0.0072441	0.0038548	-0.0017376	0.0779809	0.0767607	-60.8166	0.029617	-0.013016	-0.0030041	22.17494	120.8926	31.3148	-0.0012865	-0.0010948	-0.0090866	-96	2.25
30:02:25:31	290	-0.86239	-0.00088442	-0.00031149	0.50625	0.0078659	0.00025535	-1.09E-05	0.0693308	0.0820886	-60.8284	-0.050385	0.0069389	0.011467	22.17494	120.8926	31.31159	9.97E-05	0.00038981	-0.011978	-96	2.75
30:02:25:51	291	-0.86233	-0.00092769	-0.00020525	0.50634	0.01133	0.00067568	-0.011215	0.0797618	0.0741092	-60.8413	-0.01709	-0.010071	0.0018187	22.17494	120.8926	31.31046	-0.00072861	0.00040889	-0.011215	-97	4.25
30:02:25:70	292	-0.86221	-0.00099013	-0.00016603	0.50655	0.010551	0.00094128	-0.0068398	0.0881895	0.0738768	-60.8681	0.080139	0.023041	-0.02269	22.17494	120.8926	31.31341	-0.0021954	-0.00021446	-0.0058975	-98	4.75
30:02:25:90	293	-0.86227	-0.00094668	-0.00018708	0.50644	0.0061531	0.0035858	0.0013142	0.0826839	0.0734253	-60.8541	0.068848	0.037872	-0.011559	22.17494	120.8926	31.31674	-0.0013609	-0.00014567	-0.0035591	-97	2.75
30:02:26:09	294	-0.86225	-0.00090871	-0.00030063	0.50649	0.0076828	0.0043106	-0.0054741	0.0723374	0.0824449	-60.8604	-0.049164	-0.020386	0.0043259	22.17494	120.8926	31.28419	-0.0029106	-0.0013695	-0.0093689	-97	2.25
30:02:26:29	295	-0.86211	-0.00090744	-0.00026872	0.50672	0.0097961	0.0021172	-0.010376	0.0740436	0.0792384	-60.891	-0.04068	-0.0065804	0.010254	22.17494	120.8926	31.28637	-0.002737	0.00073957	-0.0048561	-96	3
30:02:26:49	296	-0.86212	-0.00094013	-0.00021885	0.50671	0.007843	0.0012159	-0.0062752	0.0801695	0.0762091	-60.8896	0.027939	0.036163	0.013229	22.17494	120.8926	31.2872	-0.0001663	0.0012016	-0.0060883	-97	2.25
30:02:26:68	297	-0.86209	-0.00094599	-0.00022455	0.50676	0.0063667	0.0026569	-0.0025406	0.0804136	0.0771162	-60.896	0.034393	-0.0053902	-0.0093613	22.17494	120.8926	31.28937	-0.0019798	-0.00014079	-0.0075531	-98	2.75
30:02:26:88	298	-0.86205	-0.00090592	-0.00030015	0.50682	0.0072975	0.0037098	-0.0053864	0.0720582	0.0822628	-60.9045	-0.03183	-0.018402	-0.0037441	22.17494	120.8926	31.29656	-0.0024624	0.00042486	-0.0035381	-96	3.25
30:02:27:07	299	-0.86205	-0.00087702	-0.00032537	0.50682	0.0055275	0.00036001	-0.0013666	0.0677389	0.0830759	-60.9044	-0.045898	0.0069046	0.011551	22.17494	120.8926	31.27155	-0.0022717	0.00020802	-0.0084305	-97	3
30:02:27:27	300	-0.862	-0.00091153	-0.00029285	0.50691	0.0026627	0.006649	-0.0083008	0.0730278	0.0818751	-60.9165	-0.0080719	-0.023346	-0.010849	22.17494	120.8926	31.28346	0.00050735	0.0017462	-0.0022907	-97	3
30:02:27:47	301	-0.86216	-0.00094239	-0.00026364	0.50664	0.0039368	0.0039558	9.67E-05	0.0777989	0.0807587	-60.8805	0.013565	0.021805	0.010956	22.17494	120.8926	31.2914	-0.00057936	-0.00056934	-0.00071335	-97	3.25
30:02:27:66	302	-0.86214	-0.00092379	-0.00032836	0.50668	0.0056992	0.0030003	-0.00054216	0.0721998	0.0860763	-60.8855	-0.063354	-0.011215	0.010887	22.17494	120.8926	31.29955	-0.0041428	-0.00085306	0.0032463	-98	2.5
30:02:27:86	303	-0.86211	-0.00090895	-0.00026922	0.50673	0.0082092	-0.0011797	-0.00068617	0.0741628	0.079376	-60.8922	-0.041473	-0.042328	-0.0051117	22.17494	120.8926	31.2752	-0.0050659	-0.0023785	-0.0017567	-97	2.75
30:02:28:05	304	-0.86205	-0.00087306	-0.00032481	0.50682	0.0063972	0.0042534	-0.0073853	0.0673798	0.0827905	-60.9045	-0.076904	-0.018295	0.0066071	22.17494	120.8926	31.27754	-0.0028439	-0.00075674	-0.0052795	-97	3
30:02:28:25	305	-0.86212	-0.00086698	-0.00036847	0.5067	0.0043945	0.0021496	-0.0020638	0.0642559	0.0867422	-60.8891	-0.062561	-0.0024509	0.020172	22.17494	120.8926	31.28638	-0.001792	-0.0010719	-0.0034618	-98	2
30:02:28:45	306	-0.86212	-0.00088968	-0.00025864	0.50671	0.0099945	0.00059462	-0.0044479	0.0728745	0.0772102	-60.8899	-0.029602	-0.027832	0.0040359	22.17494	120.8926	31.28887	-0.0049744	-0.0025864	-0.00017226	-97	2.25
30:02:28:64	307	-0.86206	-0.00086388	-0.00033127	0.50681	0.0070915	0.0025501	-0.0029716	0.0660999	0.0828949	-60.9028	-0.056274	-0.024857	0.0094376	22.17494	120.8926	31.29484	-0.0040894	-0.0021629	0.0010462	-97	2
30:02:28:84	308	-0.86208	-0.00082816	-0.00032306	0.50677	0.0051918	0.002924	-0.0017138	0.0630513	0.0800071	-60.8974	-0.06958	-0.023743	0.013458	22.17494	120.8926	31.26812	-0.0030231	-0.0023556	-0.0035648	-97	2.25
30:02:29:03	309	-0.86199	-0.00082325	-0.000382	0.50693	0.0081635	-0.00081396	-0.0020351	0.0591274	0.0855553	-60.9195	-0.12585	-0.033417	0.022873	22.17494	120.8926	31.27518	-0.0035152	-0.001709	-0.0014887	-97	2.5
30:02:29:23	310	-0.86199	-0.00082127	-0.00036476	0.50692	0.0067253	0.00086737	-0.0029011	0.0599348	0.0837365	-60.9177	-0.077881	-0.017609	0.01622	22.17494	120.8926	31.28133	-0.002964	-0.00144	-0.00066996	-97	2.75
30:02:29:43	311	-0.86193	-0.00084005	-0.00033918	0.50703	0.011597	-0.00077486	-0.0040855	0.0632639	0.0823088	-60.9329	-0.066956	-0.0037384	0.016281	22.17494	120.8926	31.29158	-0.0050888	-0.0023708	0.0010624	-98	2.75
30:02:29:62	312	-0.86196	-0.00078395	-0.00036068	0.50698	0.0050468	0.0017748	0.0016375	0.0564798	0.0811693	-60.9259	-0.10199	-0.0096512	0.021301	22.17494	120.8926	31.26859	-0.0045052	-0.0029907	-0.0032997	-99	2.25
30:02:29:82	313	-0.86192	-0.00082624	-0.00041363	0.50705	0.0063782	0.0048218	-0.0054512	0.0575724	0.0888612	-60.935	-0.11176	-0.041748	0.023621	22.17494	120.8926	31.276	-0.0038242	-0.0033531	-0.0011253	-99	2.75
30:02:30:01	314	-0.86191	-0.00083909	-0.00030169	0.50706	0.010201	-0.00013685	-0.0052795	0.0653454	0.0785525	-60.9367	-0.072021	-0.018356	0.012451	22.17494	120.8926	31.28666	-0.0033398	-0.0020847	0.0032063	-98	2.75
30:02:30:21	315	-0.86187	-0.00086775	-0.00031765	0.50713	0.0080719	0.0018148	-0.0037613	0.067243	0.0817991	-60.945	-0.01545	-0.023575	0.0011063	22.17494	120.8926	31.29142	-0.0024433	-0.0019207	0.0044899	-98	3
30:02:30:41	316	-0.861878872	-0.000887525	-2.50E-09	-3.41E+21	-0.46191	-0.0062828	-0.0011072	8.40E-29	-2.98E-23	180	-0.058014	-0.015511	0.011093	22.17494	120.8926	31.3038	-0.0036469	-0.0030117	0.0083542	-95	-3
30:02:30:60	317	-0.86182	-0.00091487	-0.00035091	0.50721	0.013237	0.00064135	-0.0080261	0.069955	0.0878285	-60.956	-0.079102	-0.0023289	0.013626	22.17494	120.8926	31.28107	-0.0050125	-0.0037918	0.0029907	-98	2.25
30:02:30:80	318	-0.86171	-0.00085953	-0.00035134	0.5074	0.0081863	-0.00091553	-0.00049067	0.0644456	0.0846688	-60.9813	-0.074524	-0.015808	0.011307	22.17494	120.8926	31.28823	-0.0026779	-0.0028687	0.001564	-98	2.5
30:02:31:00	319	-0.86174	-0.00090503	-0.00034125	0.50734	0.0088043	0.0015593	-0.0042648	0.0695314	0.0863142	-60.974	-0.039612	-0.01458	0.0078049	22.17494	120.8926	31.29852	-0.001339	-0.0022449	0.0014753	-98	2.5
30:02:31:19	320	-0.86177	-0.00091032	-0.00036497	0.5073	0.0083618	0.00042105	-0.00041032	0.0686783	0.088961	-60.9687	-0.053864	0.0027809	0.0080719	22.17494	120.8926	31.30925	-0.0026627	-0.003088	5.61E-05	-97	2.5
30:02:31:39	321	-0.86176	-0.00090348	-0.00030338	0.50732	0.011284	0.00037193	-0.0044289	0.0715821	0.0824827	-60.9712	-0.052643	-0.0088577	0.0053215	22.17494	120.8926	31.32165	-0.0032063	-0.0022449	0.0032654	-98	2.5
30:02:31:58	322	-0.86172	-0.00090814	-0.00032071	0.50738	0.011162	-0.0023518	-0.0010223	0.0710294	0.0844695	-60.9786	-0.048462	0.015572	0.0091934	22.17494	120.8926	31.29845	-0.0027637	-0.002737	-0.0014257	-98	3
30:02:31:78	323	-0.86178	-0.00088409	-0.00030979	0.50728	0.0071983	0.0029202	-0.0053825	0.069299	0.0819846	-60.9654	-0.034454	0.00086594	0.0084076	22.17494	120.8926	31.30951	-0.0025692	-0.0019321	0.0011358	-97	2.25
30:02:31:98	324	-0.86169	-0.00090731	-0.00026527	0.50743	0.0094299	-0.001976	-0.0023556	0.0741653	0.0789506	-60.9853	-0.015213	-0.0067787	0.0078583	22.17494	120.8926	31.31757	-0.0025368	-0.00098515	0.001214	-97	2.5
30:02:32:17	325	-0.86172	-0.0008955	-0.0003202	0.50739	0.0069046	0.0026417	-0.0028038	0.0698095	0.083685	-60.9797	-0.033478	0.015869	0.016724	22.17494	120.8926	31.3277	-0.0027962	-0.0027237	4.49E-05	-97	3.25
30:02:32:37	326	-0.8617	-0.00092352	-0.00028737	0.50741	0.0074043	0.0016718	-0.002327	0.0744827	0.0820741	-60.9833	0.0027523	0.016968	0.0023327	22.17494	120.8926	31.30701	-0.0025826	-0.003437	-0.004364	-98	2.75
30:02:32:57	327	-0.8617	-0.00090732	-0.00027799	0.50742	0.0070724	0.0032864	-0.0050583	0.0734283	0.080207	-60.9844	-0.028961	-0.011169	-0.0039368	22.17494	120.8926	31.32241	-0.0035973	-0.0030518	3.58E-06	-97	2.75
30:02:32:76	328	-0.86167	-0.00089041	-0.00032761	0.50747	0.0062027	0.0033531	-0.0050011	0.0688684	0.084127	-60.9906	-0.041504	0.00089359	0.011314	22.17494	120.8926	31.33316	-0.0039291	-0.001668	0.0041428	-97	2.5
30:02:32:96	329	-0.86171	-0.00091974	-0.00030072	0.50741	0.0069046	0.0018425	-0.0036259	0.0733337	0.083172	-60.9823	-0.02121	0.030014	0.02533	22.17494	120.8926	31.34532	-0.0042877	-0.0023632	0.0048447	-96	3
30:02:33:16	330	-0.86169	-0.00092574	-0.00032198	0.50744	0.0066605	0.0048027	-0.007122	0.0726877	0.0856227	-60.9863	-0.0020237	-0.00032115	-0.00098991	22.17494	120.8926	31.35022	-0.0028267	-0.0032711	0.0015068	-96	2.5
30:02:33:35	331	-0.8617	-0.00090442	-0.00033013	0.50741	0.0071754	0.00081873	-0.00026011	0.0701108	0.0851855	-60.9829	-0.04126	-0.023422	-0.0017185	22.17494	120.8926	31.3352	-0.0038147	-0.0048637	-0.0022392	-97	2.75
30:02:33:55	332	-0.86162	-0.00092778	-0.00030857	0.50756	0.0091934	0.00038958	-0.0056419	0.0736565	0.0844285	-61.0029	-0.023697	-0.00046778	-0.0048447	22.17494	120.8926	31.34404	-0.0043678	-0.0029278	-0.0017605	-97	2.5
30:02:33:74	333	-0.86165	-0.00089396	-0.00034706	0.50751	0.0043678	0.0018101	-0.00017524	0.068084	0.0862563	-60.9956	-0.026077	-0.0025349	0.00811	22.17494	120.8926	31.35363	-0.0036449	-0.0030899	-0.0020123	-98	2.75
30:02:33:94	334	-0.8616	-0.00091436	-0.00036112	0.50758	0.004097	0.0061378	-0.0061417	0.0692721	0.0888379	-61.0061	-0.019028	-0.013268	0.0019798	22.17494	120.8926	31.36798	-0.003231	-0.003994	0.0015039	-97	2.75
30:02:34:14	335	-0.86167	-0.00090016	-0.00033195	0.50748	0.0056381	0.0017376	-0.001543	0.069578	0.0851237	-60.9917	-0.026321	0.013847	0.026749	22.17494	120.8926	31.37685	-0.0028572	-0.0031452	0.0023899	-98	2.5
30:02:34:33	336	-0.86166	-0.00090174	-0.00032473	0.50749	0.0055923	0.0054665	-0.0066376	0.0701516	0.0845035	-60.9937	-0.020737	-0.016785	-0.00142	22.17494	120.8926	31.35897	-0.0034504	-0.0045547	-0.0013981	-97	2.5
30:02:34:53	337	-0.86167	-0.00087811	-0.00030648	0.50747	0.0075417	-0.00092173	6.96E-05	0.0688831	0.0813254	-60.9904	-0.034271	-0.0090866	0.0035191	22.17494	120.8926	31.367	-0.0041885	-0.004425	-0.003109	-98	3
30:02:34:72	338	-0.86163	-0.00086889	-0.00036318	0.50753	0.0052986	0.0047798	-0.0045128	0.064669	0.0863926	-60.9991	-0.048462	-0.0016518	0.0093613	22.17494	120.8926	31.37813	-0.0037251	-0.0045204	-0.0012159	-97	2.5
30:02:34:92	339	-0.86167	-0.00086054	-0.00033215	0.50747	0.0053062	0.0036526	-0.0030327	0.0656542	0.0828388	-60.991	-0.043335	-0.022278	0.0057945	22.17494	120.8926	31.38712	-0.0031567	-0.002943	-0.0001688	-98	3
30:02:35:12	340	-0.86165	-0.00089825	-0.00031461	0.5075	0.005806	0.0047493	-0.0062485	0.0703954	0.0833021	-60.9953	-0.030945	-0.039795	-0.0029488	22.17494	120.8926	31.36839	-0.0040359	-0.0043068	-0.0039711	-97	2.75
30:02:35:31	341	-0.86165	-0.00089877	-0.00035299	0.5075	0.0056152	0.0032997	-0.0029697	0.0682136	0.0871223	-60.9955	-0.050323	-0.0016222	0.0045204	22.17494	120.8926	31.38212	-0.0038471	-0.0046997	-0.00084352	-97	2.75
30:02:35:51	342	-0.86164	-0.00087957	-0.00032122	0.50752	0.0067406	0.0041428	-0.0052948	0.0681654	0.0828696	-60.9972	-0.059204	-0.031113	-0.0015278	22.17494	120.8926	31.3928	-0.0036011	-0.0051155	-0.0012732	-98	3
30:02:35:71	343	-0.86158	-0.00086687	-0.00031221	0.50762	0.0070686	-0.00095367	0.0010185	0.067425	0.0812491	-61.0107	-0.035583	-0.014954	-0.0019169	22.17494	120.8926	31.3978	-0.0029087	-0.0043221	-3.60E-05	-98	2.75
30:02:35:90	344	-0.86156	-0.00088478	-0.00027022	0.50766	0.0065346	0.0031261	-0.0029774	0.0716327	0.0781487	-61.0161	-0.0053596	-0.034363	-0.015388	22.17494	120.8926	31.40289	-0.0019398	-0.0036373	0.0018749	-97	3
30:02:36:10	345	-0.86155	-0.00089614	-0.00029393	0.50767	0.0066528	0.0019932	-0.0024929	0.0713735	0.0811513	-61.0181	-0.025879	-0.017609	0.00029182	22.17494	120.8926	31.37962	-0.0029526	-0.0038033	-0.0025978	-98	3
30:02:36:29	346	-0.86156	-0.00085078	-0.00031056	0.50765	0.0058594	0.0019503	-0.00010645	0.0659295	0.0801525	-61.0153	-0.049683	-0.0086212	0.0084991	22.17494	120.8926	31.38567	-0.0025635	-0.004528	-0.0041771	-97	2.75
30:02:36:49	347	-0.8615	-0.00088051	-0.00033697	0.50776	0.0072098	0.0033894	-0.0034962	0.0673173	0.084498	-61.0298	-0.046875	-0.010986	-0.0052261	22.17494	120.8926	31.39268	-0.0041809	-0.0057182	-0.0062752	-99	3
30:02:36:69	348	-0.86154	-0.00087196	-0.00025193	0.50769	0.0072899	0.0028057	-0.0027695	0.0714284	0.0755998	-61.0203	-0.023209	-0.008522	-0.0057259	22.17494	120.8926	31.39378	-0.0031643	-0.0044098	-0.0067673	-97	2.75
30:02:36:88	349	-0.8614	-0.00087956	-0.00027394	0.50793	0.0062981	0.0041924	-0.0060616	0.0708761	0.0782346	-61.0515	-0.001894	-0.022278	-0.0060272	22.17494	120.8926	31.40258	-0.0035248	-0.0022755	-0.00097942	-97	3
30:02:37:08	350	-0.8614	-0.00089919	-0.00027377	0.50792	0.0066338	0.0033264	-0.0019503	0.0728239	0.0793599	-61.0511	0.0078354	0.018921	0.0050468	22.17494	120.8926	31.38185	-0.0041962	-0.0032749	-0.0049934	-98	2.75
30:02:37:27	351	-0.86143	-0.00086952	-0.00025956	0.50788	0.0064087	0.0054054	-0.0056534	0.0707268	0.0762271	-61.045	0.00050879	0.010048	0.002409	22.17494	120.8926	31.39242	-0.0053406	-0.0003593	-0.0014095	-97	2.75
30:02:37:47	352	-0.86141	-0.00085995	-0.00024871	0.50791	0.0066681	0.0012999	-0.00059891	0.0704103	0.0746013	-61.0499	0.012672	-0.0039406	-0.013092	22.17494	120.8926	31.4023	-0.0042992	-0.0007019	0.0010729	-97	3
30:02:37:67	353	-0.8614	-0.00088802	-0.00025355	0.50792	0.0060081	0.0060463	-0.0058708	0.0728989	0.0767139	-61.0509	0.034698	0.040283	-0.006424	22.17494	120.8926	31.41037	-0.0051689	-0.0012131	0.0024509	-97	2.75
30:02:37:86	354	-0.86138	-0.00089858	-0.00024462	0.50796	0.0058098	0.0045319	-0.004467	0.0744576	0.0764493	-61.0554	0.05307	0.0082016	-0.020325	22.17494	120.8926	31.3974	-0.0055237	-0.0015955	8.06E-05	-97	2.5
30:02:38:06	355	-0.86137	-0.00086041	-0.00026368	0.50797	0.0049057	0.0051193	-0.0055351	0.0695794	0.07611	-61.0573	0.014832	-0.016739	-0.0029354	22.17494	120.8926	31.40782	-0.0053215	-0.001298	-0.00033331	-97	2.75
30:02:38:26	356	-0.86133	-0.0008647	-0.00028676	0.50804	0.005867	0.0019798	-0.0033951	0.0686524	0.0786437	-61.067	-0.0023232	0.024246	0.011353	22.17494	120.8926	31.40848	-0.0043602	-0.002079	-0.0032558	-97	2.75
30:02:38:45	357	-0.86132	-0.00087738	-0.00024447	0.50807	0.0038338	0.0050812	-0.0053635	0.0723645	0.0752105	-61.0704	0.037994	0.0074844	-0.0030231	22.17494	120.8926	31.41461	-0.0037498	-0.0019817	-0.0041428	-98	3
30:02:38:65	358	-0.86125	-0.00087833	-0.00030287	0.50819	0.0027714	0.0031738	0.0014906	0.0690458	0.0810396	-61.0864	0.044403	0.0080948	-0.0070877	22.17494	120.8926	31.41517	-0.0036335	-0.0013494	-0.001296	-97	3
30:02:38:84	359	-0.86125	-0.00085751	-0.00030664	0.50818	0.0041389	0.0028839	-0.0011396	0.0667733	0.0801978	-61.085	0.011642	-0.0042839	-0.011559	22.17494	120.8926	31.39352	-0.0039291	-0.0015268	-0.0047073	-99	3
30:02:39:04	360	-0.8612	-0.00085996	-0.00030938	0.50826	0.0065765	0.0010881	-0.0021305	0.0668481	0.0806178	-61.096	-0.0059433	0.0041847	0.00089169	22.17494	120.8926	31.39847	-0.0033779	-0.0024967	-0.0017853	-98	3
30:02:39:23	361	-0.86118	-0.00085164	-0.0002945	0.5083	0.002327	0.0070381	-0.0057907	0.0668899	0.0786673	-61.1007	0.009697	0.0095062	0.0034523	22.17494	120.8926	31.40782	-0.0023232	-0.0016479	-0.00094795	-99	3
30:02:39:43	362	-0.86116	-0.00086297	-0.00032561	0.50834	0.0015936	0.0071869	-0.0032101	0.0661928	0.0824004	-61.1061	0.022964	-0.005249	0.0010071	22.17494	120.8926	31.40856	-0.0019226	-0.002224	-0.0027676	-98	3
30:02:39:63	363	-0.86115	-0.00084341	-0.00028844	0.50834	0.0044937	0.004715	-0.0035648	0.0664259	0.0775937	-61.1071	0.001524	-0.025299	-0.012108	22.17494	120.8926	31.40686	-0.0018721	-0.00284	-0.0058174	-98	3
30:02:39:82	364	-0.86115	-0.00082304	-0.00029449	0.50836	0.0045319	0.0056801	-0.007309	0.0640623	0.077005	-61.1086	-0.036255	0.00064516	0.0047493	22.17494	120.8926	31.38932	-0.0025692	-0.003521	-0.0093765	-97	2.75
30:02:40:02	365	-0.8611	-0.00084169	-0.00031238	0.50843	0.004055	0.0043983	-0.0031624	0.0648539	0.079863	-61.1192	-0.028015	-0.0070305	3.53E-05	22.17494	120.8926	31.38671	-0.0011663	-0.0046844	-0.011703	-98	2.75
30:02:40:21	366	-0.86107	-0.00084973	-0.00035193	0.50848	0.001255	0.0075493	-0.0044746	0.0633387	0.084237	-61.1251	-0.0057335	-0.03244	-0.0070534	22.17494	120.8926	31.38205	-0.0004921	-0.0047493	-0.013992	-100	2.25
30:02:40:41	367	-0.86112	-0.00086768	-0.00033423	0.50839	0.003479	0.0025139	-0.00055933	0.0661492	0.0835306	-61.1139	-0.023254	0.007988	0.0043983	22.17494	120.8926	31.3847	-0.0011768	-0.0039253	-0.011398	-101	2.75
30:02:40:61	368	-0.86109	-0.00087876	-0.00033791	0.50845	0.005146	0.0030041	-0.0029793	0.0670219	0.0845427	-61.1218	-0.018097	0.0029335	0.0074501	22.17494	120.8926	31.36631	-0.0026512	-0.0047798	-0.015137	-98	2.5
30:02:40:80	369	-0.86107	-0.00086184	-0.00031795	0.50848	0.003685	0.0060158	-0.0027065	0.0665129	0.0815898	-61.1258	0.0066338	-0.0050583	-0.0046692	22.17494	120.8926	31.3663	-0.0019064	-0.0040588	-0.011192	-98	2.5
30:02:41:00	370	-0.86109	-0.00084968	-0.00032101	0.50846	0.0025406	0.0080795	-0.0040169	0.0651375	0.0811817	-61.1223	0.0056572	-0.01265	-0.010948	22.17494	120.8926	31.37094	-0.00024557	-0.0032749	-0.0077896	-97	2.75
30:02:41:20	371	-0.86106	-0.00087416	-0.00033087	0.50851	0.0049858	0.0020924	0.00033689	0.0669726	0.0835852	-61.1293	-0.021317	-0.005024	-0.0062828	22.17494	120.8926	31.37339	-0.00056505	-0.0035515	-0.0080948	-98	2.75
30:02:41:39	372	-0.86102	-0.00088099	-0.00034507	0.50856	0.0052757	0.0059471	-0.0058861	0.0668144	0.0853888	-61.1364	-0.012932	0.0074768	-0.007618	22.17494	120.8926	31.37624	-0.00079679	-0.0036087	-0.0081558	-98	2.75
30:02:41:59	373	-0.86103	-0.00085697	-0.00034446	0.50856	0.0025997	0.0051422	6.62E-06	0.0644802	0.0839286	-61.1361	-0.0016623	-0.0047073	-0.0027905	22.17494	120.8926	31.35216	0.00052214	-0.0049057	-0.01329	-98	3
30:02:41:78	374	-0.86104	-0.00085747	-0.00034274	0.50854	0.00066614	0.01001	-0.0040436	0.0646315	0.0837859	-61.1332	0.0039787	-0.0073318	-0.005352	22.17494	120.8926	31.35828	0.0013762	-0.0042686	-0.0082092	-98	2.5
30:02:41:98	375	-0.86105	-0.00087282	-0.00026678	0.50852	0.0041313	0.0041237	-0.0025425	0.0705743	0.0771839	-61.1302	0.0083389	-0.0004425	-0.008934	22.17494	120.8926	31.36057	-0.00077152	-0.004261	-0.0056381	-98	2.25
30:02:42:18	376	-0.86106	-0.00086372	-0.00019452	0.50851	0.0053062	0.0020542	-0.0010939	0.0738881	0.0695225	-61.1288	0.025543	0.0044899	-0.0069847	22.17494	120.8926	31.3606	-0.0026608	-0.0030174	-0.0055542	-97	2.75
30:02:42:37	377	-0.86106	-0.00084594	-0.00019114	0.50851	0.0032063	0.0027962	0.0023232	0.0723304	0.0681532	-61.1286	0.037292	0.020462	0.00026035	22.17494	120.8926	31.34842	-0.0017996	-0.0039482	-0.0081329	-98	2.75
30:02:42:57	378	-0.86107	-0.00084499	-0.00021756	0.50849	-9.85E-05	0.0097046	-0.0042839	0.0706992	0.070703	-61.1266	0.036377	-0.012321	-0.013756	22.17494	120.8926	31.35214	-0.00083637	-0.0034657	-0.0063667	-97	3
30:02:42:76	379	-0.86102	-0.00087322	-0.0001779	0.50856	0.0033798	0.0039673	-0.0022888	0.0757898	0.0684412	-61.1364	0.04303	0.0063896	-0.0094833	22.17494	120.8926	31.35416	-0.0017471	-0.0029202	-0.0023441	-98	2.75
30:02:42:96	380	-0.86105	-0.000889	-0.00013243	0.50853	0.0056763	0.0027485	-0.00073099	0.0799987	0.0648715	-61.1315	0.088806	0.037079	-0.0075188	22.17494	120.8926	31.36186	-0.0029602	-0.0022545	-0.00083399	-98	2.75
30:02:43:16	381	-0.86101	-0.00082466	-0.00022257	0.50858	0.00080442	0.008316	-0.0017929	0.0683937	0.0700205	-61.1388	0.030991	0.0043144	-0.014977	22.17494	120.8926	31.3698	-0.0019875	-0.0025196	-0.0014706	-99	3
30:02:43:35	382	-0.86103	-0.00081143	-0.00016602	0.50856	0.0020027	0.0051575	-0.00044155	0.0703858	0.0636683	-61.1361	0.001852	-0.019089	0.0012102	22.17494	120.8926	31.35605	-0.0025997	-0.0032387	-0.0042648	-99	3
30:02:43:55	383	-0.86097	-0.00083377	-0.00019711	0.50865	0.0018177	0.0083084	-0.0068665	0.0707711	0.0680453	-61.1479	0.017426	0.0085068	-0.00032043	22.17494	120.8926	31.3632	-0.0025883	-0.0018272	-0.00054741	-98	3
30:02:43:75	384	-0.86097	-0.00078906	-0.00013614	0.50865	0.0015783	0.0044632	1.82E-05	0.0699141	0.0594241	-61.1476	0.040894	-0.0094376	-0.008728	22.17494	120.8926	31.36441	-0.0027618	-0.00035501	0.0020657	-98	2.75
30:02:43:94	385	-0.86101	-0.00080517	-0.00013725	0.50859	0.0017262	0.0047264	0.00054121	0.0714428	0.0604667	-61.1398	0.024719	0.0047112	-0.010498	22.17494	120.8926	31.37106	-0.0033283	-0.0012274	0.0018463	-98	3
30:02:44:14	386	-0.86104	-0.00076751	-0.00012943	0.50853	0.0016642	0.0049706	0.00074387	0.068186	0.0574963	-61.1325	-0.012413	0.0050163	-0.00354	22.17494	120.8926	31.36887	-0.0042381	-0.00032067	0.001298	-98	2.75
30:02:44:33	387	-0.86102	-0.00077362	-0.00010048	0.50857	0.0027466	0.0049667	-0.0035381	0.0704741	0.0549986	-61.1371	-0.0092926	-0.0057564	-0.0068855	22.17494	120.8926	31.36098	-0.0053482	0.00011253	-0.00011986	-99	3
30:02:44:53	388	-0.86094	-0.00076406	-0.00010172	0.5087	0.0018177	0.0036449	1.50E-05	0.06945	0.0545742	-61.1551	0.0010252	0.011276	0.006813	22.17494	120.8926	31.3612	-0.0045204	0.00089025	-0.00045156	-99	2.75
30:02:44:73	389	-0.86083	-0.00075233	-0.00011294	0.50889	0.0017328	0.004982	0.0002414	0.067627	0.0550123	-61.18	-0.0081635	0.017059	0.010643	22.17494	120.8926	31.36451	-0.0036583	0.0016365	0.0010967	-97	3
30:02:44:92	390	-0.8607	-0.00076254	-0.00011106	0.50911	0.0029182	0.0037556	-0.00022697	0.0687291	0.05544	-61.2094	-0.020294	-0.01461	-0.0056076	22.17494	120.8926	31.36891	-0.0042953	0.0012341	0.0024948	-97	2.75
30:02:45:12	391	-0.8607	-0.00074743	-6.73E-05	0.50911	0.0031395	0.0074539	-0.0067978	0.0697928	0.0502415	-61.2095	-0.018768	-0.016342	-0.017136	22.17494	120.8926	31.35679	-0.0059357	0.0011053	0.00018084	-97	3
30:02:45:31	392	-0.86055	-0.00074144	-8.54E-05	0.50936	0.0017223	0.0058899	-0.00096512	0.0681328	0.0516942	-61.2421	-0.0016985	0.0022106	-0.00061989	22.17494	120.8926	31.35613	-0.0045662	0.0023003	0.00061989	-98	2
30:02:45:51	393	-0.86059	-0.00073432	-0.00010093	0.5093	0.0010538	0.0081787	-0.0032444	0.0665248	0.0528099	-61.235	-0.02211	-0.007431	0.0078354	22.17494	120.8926	31.35811	-0.0042648	0.0019026	0.00080633	-98	2.75
30:02:45:71	394	-0.86045	-0.0007549	-8.79E-05	0.50953	0.0048714	0.003067	0.00013065	0.0693008	0.052744	-61.2651	-0.018509	-0.0031395	0.00030994	22.17494	120.8926	31.35919	-0.0053596	0.0012159	0.00083113	-98	3
30:02:45:90	395	-0.86044	-0.00075619	-6.17E-05	0.50955	0.0058784	0.003479	-0.0025635	0.0709542	0.0502416	-61.2678	-0.016327	0.0062675	-0.0046616	22.17494	120.8926	31.35631	-0.0057602	0.00074482	-0.0019665	-97	3
30:02:46:10	396	-0.86042	-0.00073123	-0.00010863	0.50959	0.0028839	0.0075188	-0.0038357	0.0657532	0.05341	-61.2726	-0.025223	-0.017441	-0.0062256	22.17494	120.8926	31.3402	-0.0057335	0.00059938	-0.005352	-97	3
30:02:46:29	397	-0.86029	-0.00071888	-8.87E-05	0.50981	0.00053596	0.0044365	0.0030193	0.0656875	0.0507396	-61.3024	-0.019165	-0.02066	-0.00093365	22.17494	120.8926	31.34467	-0.0031319	0.00050688	-0.0073242	-97	2.75
30:02:46:49	398	-0.86033	-0.00073965	-0.00011009	0.50974	0.0025349	0.0035038	-0.0010633	0.0664892	0.0540578	-61.2929	-0.017548	0.012344	0.015038	22.17494	120.8926	31.34769	-0.0050964	0.00057554	-0.003933	-97	2.75
30:02:46:69	399	-0.86022	-0.00075955	-3.35E-05	0.50992	0.0031662	0.0049667	-0.0030823	0.0729173	0.0476806	-61.3176	0.032593	-0.0077286	-0.0081024	22.17494	120.8926	31.34936	-0.0045776	0.001174	0.00043011	-97	2.75
30:02:46:88	400	-0.86024	-0.00075303	-2.90E-05	0.50989	0.002718	0.0059128	-0.00095844	0.0725385	0.0468548	-61.3133	0.019867	0.0093536	0.002161	22.17494	120.8926	31.35196	-0.0053101	-0.00073195	-0.0011139	-97	2.75
30:02:47:08	401	-0.86022	-0.00072979	-9.00E-05	0.50992	0.0015221	0.005825	0.0015221	0.0666788	0.0515168	-61.3166	-0.030563	0.020172	0.0063438	22.17494	120.8926	31.33815	-0.0059509	0.00010592	-0.0038986	-97	2.75
30:02:47:27	402	-0.85998	-0.00071913	-5.48E-05	0.51034	0.0019493	0.007206	-0.004425	0.0676644	0.0474531	-61.3723	-0.032227	-0.034149	-0.009346	22.17494	120.8926	31.33628	-0.0046196	0.00077009	-0.0036182	-97	3
30:02:47:47	403	-0.85977	-0.00075562	-4.87E-05	0.51069	0.0017643	0.0041161	0.00047565	0.0715961	0.0490156	-61.4194	0.035553	0.013535	-0.0048676	22.17494	120.8926	31.33554	-0.004097	0.0026703	-0.00062418	-97	3
30:02:47:66	404	-0.85971	-0.0007407	-5.26E-05	0.51078	0.00022054	0.0091019	-0.0042343	0.0698898	0.04854	-61.4318	0.039948	0.015305	0.0098724	22.17494	120.8926	31.33176	-0.0026951	0.0029774	0.0021076	-99	2.75
30:02:47:86	405	-0.85971	-0.00072053	-5.97E-05	0.51079	0.0023422	0.0053368	0.0011272	0.0674908	0.0480521	-61.433	-0.0030327	-0.017761	-0.011429	22.17494	120.8926	31.31343	-0.0041389	0.0016136	-0.0026131	-99	3.5
30:02:48:06	406	-0.85969	-0.00070358	-2.93E-05	0.51081	0.001832	0.0066795	-0.0041695	0.0675995	0.0440663	-61.436	-0.0022354	-0.0065918	-0.0037918	22.17494	120.8926	31.31349	-0.0046158	0.0010748	-0.0015287	-98	3.75
30:02:48:25	407	-0.85959	-0.00071905	-1.51E-06	0.51099	0.0023727	0.0035973	-0.0015574	0.070739	0.0422523	-61.4597	0.048035	0.025513	-0.0050392	22.17494	120.8926	31.31278	-0.0035915	0.0038834	-3.81E-06	-98	3.75
30:02:48:45	408	-0.85942	-0.0007025	-4.82E-05	0.51127	-0.00098801	0.0073967	-0.00030375	0.0663584	0.0459078	-61.4965	0.018219	-0.0031624	-0.01918	22.17494	120.8926	31.31337	-0.0016851	0.0044441	0.00058842	-97	3.5
30:02:48:64	409	-0.85939	-0.00070483	-7.72E-05	0.51132	0.00074244	0.0071754	-0.0026054	0.0648895	0.0488977	-61.5041	0.0015373	0.016876	0.0021191	22.17494	120.8926	31.30918	-0.0031433	0.0028973	0.00020409	-100	3.5
30:02:48:84	410	-0.85935	-0.00072542	1.41E-05	0.51138	0.0043144	0.0017138	-0.00071335	0.072261	0.041122	-61.5117	0.049774	0.030121	-0.0064964	22.17494	120.8926	31.2977	-0.0044174	0.0033607	-0.0019503	-100	3.5
30:02:49:04	411	-0.8594	-0.00070579	-4.59E-05	0.5113	-0.00031805	0.0079956	-0.0012302	0.0668174	0.0458723	-61.5005	0.075073	-0.01339	-0.029572	22.17494	120.8926	31.29781	-0.0035343	0.0024319	-0.0005331	-100	3.75
30:02:49:23	412	-0.85939	-0.00068106	-7.20E-05	0.51132	0.0021076	0.0041466	0.0021305	0.0628515	0.046995	-61.5034	0.003231	0.0075264	-0.00073051	22.17494	120.8926	31.30064	-0.0038586	0.0022125	0.00057888	-99	3.75
30:02:49:43	413	-0.85931	-0.00069208	-9.75E-05	0.51146	0.0052795	0.0051727	-0.0045357	0.062437	0.0501578	-61.5216	-0.019852	0.012573	0.0065384	22.17494	120.8926	31.30284	-0.0054131	0.0019093	0.0032291	-97	3.75
30:02:49:62	414	-0.8593	-0.00066758	-2.29E-05	0.51147	0.0032558	0.0047226	-0.0017834	0.0643939	0.0413812	-61.5232	0.041595	0.00018024	-0.0089493	22.17494	120.8926	31.30295	-0.0044441	0.0016298	0.00040317	-100	3.5
30:02:49:82	415	-0.8593	-0.00066366	-8.72E-05	0.51148	0.00097466	0.0092316	-0.0041237	0.0602358	0.0474889	-61.5248	0.015213	0.00070047	-0.014229	22.17494	120.8926	31.28715	-0.0035515	0.0013475	-0.0035305	-102	3.25
30:02:50:02	416	-0.85929	-0.00062215	-9.17E-05	0.5115	0.0023575	0.0029049	0.0017319	0.0558896	0.0454908	-61.5271	-0.034119	0.0043106	-0.00081635	22.17494	120.8926	31.28464	-0.0043869	0.0018806	-0.0036793	-98	3.75
30:02:50:21	417	-0.85918	-0.00065491	-8.75E-05	0.51167	0.0039635	0.005497	-0.0053787	0.0593515	0.0470104	-61.5498	-0.012573	-0.013802	-0.0026493	22.17494	120.8926	31.28412	-0.0046539	0.0019321	-0.0025139	-97	3.75
30:02:50:41	418	-0.85902	-0.0006601	-8.03E-05	0.51194	0.00073338	0.0082626	-0.005722	0.0602661	0.0466296	-61.5856	0.026718	0.02037	0.0062103	22.17494	120.8926	31.28183	-0.0022106	0.0020027	-0.0032215	-97	3.75
30:02:50:60	419	-0.85904	-0.0006475	-8.43E-05	0.51191	-0.00049114	0.0090714	-0.0038967	0.058794	0.0462811	-61.5817	0.0026226	0.018066	0.014931	22.17494	120.8926	31.26834	-0.0027275	0.003067	-0.0058517	-99	3.75
30:02:50:80	420	-0.85907	-0.00063684	-8.64E-05	0.51186	0.0016546	0.0050659	0.0013351	0.0576238	0.0458599	-61.576	-0.028748	-0.014664	-0.012108	22.17494	120.8926	31.26514	-0.0048981	0.0017462	-0.0074883	-97	3.5
30:02:51:00	421	-0.85899	-0.00064319	-5.25E-05	0.51199	0.0037937	0.0051765	-0.0052299	0.0602303	0.0429048	-61.5932	-0.0034771	-0.0055046	0.00042343	22.17494	120.8926	31.26455	-0.0050278	0.0020142	-0.0080795	-96	3.75
30:02:51:19	422	-0.85872	-0.00065096	-8.34E-05	0.51244	0.0020885	0.0070724	-0.004467	0.0591576	0.0464339	-61.6534	0.0093613	0.032776	0.0053825	22.17494	120.8926	31.26875	-0.0034142	0.0035877	-0.0052299	-98	3.75
30:02:51:39	423	-0.85889	-0.0006333	-7.90E-05	0.51216	0.00014293	0.0056915	0.0020885	0.0576968	0.044939	-61.6159	-0.0089874	-0.013306	0.0029831	22.17494	120.8926	31.27235	-0.003994	0.0023804	-0.0021915	-98	3.5
30:02:51:58	424	-0.85886	-0.00061911	-0.00012363	0.51221	0.0018129	0.0052109	0.00018382	0.0536753	0.0485066	-61.622	-0.050934	-0.0025673	0.011238	22.17494	120.8926	31.26045	-0.0058784	0.002079	-0.0045204	-97	3.75
30:02:51:78	425	-0.85853	-0.00061516	-8.33E-05	0.51277	0.0014591	0.0043831	0.00069571	0.0556274	0.0443371	-61.6964	-0.027344	0.0071945	-0.0036793	22.17494	120.8926	31.25904	-0.0042038	0.0034313	-0.0024586	-99	3.75
30:02:51:98	426	-0.85833	-0.00064849	-0.00012357	0.5131	0.0013075	0.0051842	-0.0016584	0.0565189	0.0502831	-61.7407	-0.017944	-0.04071	-0.011932	22.17494	120.8926	31.25922	-0.0025673	0.0037766	-0.001893	-98	3.75
30:02:52:17	427	-0.85841	-0.00065481	-0.00012536	0.51296	0.0023365	0.0064125	-0.0035038	0.0570425	0.0508219	-61.7225	-0.054321	0.0013494	0.0047188	22.17494	120.8926	31.25801	-0.0037937	0.0015049	-0.0034618	-98	3.75
30:02:52:37	428	-0.8584	-0.00067863	-8.62E-05	0.51298	0.0029583	0.0058212	-0.0032349	0.0616893	0.0483664	-61.7253	-0.020477	0.0039597	0.0029182	22.17494	120.8926	31.24964	-0.0046997	0.0013275	-0.0056152	-97	3.75
30:02:52:57	429	-0.85827	-0.00067969	-6.05E-05	0.5132	0.0016308	0.0065308	-0.0021057	0.0632926	0.0459172	-61.7545	0.0042877	-0.017487	0.0015106	22.17494	120.8926	31.24408	-0.0042839	-6.56E-06	-0.0096207	-97	3.75
30:02:52:76	430	-0.85814	-0.00068856	-5.93E-05	0.51342	0.0033607	0.0069237	-0.0045471	0.0642221	0.0463391	-61.7835	-0.012703	-0.023193	-0.012611	22.17494	120.8926	31.24065	-0.0041008	-3.58E-05	-0.0084381	-99	4
30:02:52:96	431	-0.85812	-0.00068504	-4.98E-05	0.51345	0.0036545	0.0029182	-0.00047445	0.0644349	0.045198	-61.7874	-0.04776	0.010666	0.0039597	22.17494	120.8926	31.2482	-0.004158	0.0014038	-0.0027905	-97	3.5
30:02:53:16	432	-0.85811	-0.00069901	-5.94E-05	0.51347	0.0047531	0.0042038	-0.002821	0.0652414	0.0469668	-61.7908	-0.044983	-0.0081406	-0.0006609	22.17494	120.8926	31.25259	-0.0058479	0.0007267	-0.00049257	-98	3.75
30:02:53:35	433	-0.8581	-0.00070773	-2.71E-05	0.51348	0.003706	0.0035896	-0.0016661	0.0680007	0.0443034	-61.7915	0.0070457	-0.0099716	-0.0062408	22.17494	120.8926	31.24911	-0.005825	0.00017607	-0.0019875	-97	3.75
30:02:53:55	434	-0.8581	-0.00070131	-1.41E-05	0.51348	0.0016279	0.0075645	-0.0031605	0.0681342	0.0426469	-61.7913	0.0095367	0.020187	0.0027924	22.17494	120.8926	31.25349	-0.0054741	0.00013602	-0.00073051	-97	4
30:02:53:74	435	-0.85794	-0.00068601	-2.05E-05	0.51375	0.0020523	0.0045815	0.0017824	0.0662339	0.0424068	-61.828	-0.012131	-0.02919	-0.013672	22.17494	120.8926	31.26018	-0.0054016	0.0003202	0.00022686	-97	4
30:02:53:94	436	-0.85792	-0.00069099	1.25E-06	0.51378	0.0026531	0.0077057	-0.004776	0.0680053	0.0405587	-61.8317	-0.0098495	0.0059662	-0.0034103	22.17494	120.8926	31.26242	-0.0065231	-0.00032139	-0.00048971	-97	4
30:02:54:14	437	-0.8579	-0.00068776	2.88E-05	0.51381	0.0028305	0.0034428	0.0023308	0.0693063	0.037667	-61.8358	0.006279	0.0030918	-0.017105	22.17494	120.8926	31.26242	-0.006813	0.00059223	-0.0022125	-97	4
30:02:54:33	438	-0.85791	-0.00068917	3.61E-05	0.5138	0.0021038	0.0066452	-0.0025291	0.0698787	0.0370244	-61.8344	-0.019806	-0.02446	-0.0015144	22.17494	120.8926	31.26069	-0.0073624	0.00044346	-0.0028744	-97	3.75
30:02:54:53	439	-0.85778	-0.00071813	1.01E-05	0.51402	0.0044746	0.003231	-0.00086784	0.0711806	0.0413109	-61.8639	-0.016968	-0.010002	0.00017357	22.17494	120.8926	31.26234	-0.0061035	-0.00074434	-0.0029964	-98	4
30:02:54:73	440	-0.85778	-0.00072508	4.18E-05	0.51402	0.0034218	0.0062943	-0.0046806	0.0737304	0.0386048	-61.864	0.028381	0.013741	0.0018187	22.17494	120.8926	31.26721	-0.0068321	0.00091553	-0.0027428	-97	3.75
30:02:54:92	441	-0.85759	-0.00070093	8.60E-06	0.51433	0.00090742	0.0056229	0.00047922	0.0693889	0.0404664	-61.9056	-0.0025635	-0.013153	-0.0079041	22.17494	120.8926	31.27379	-0.0054932	0.0010347	-0.0020866	-98	3.5
30:02:55:12	442	-0.85758	-0.00072918	1.53E-05	0.51436	0.0030289	0.0066452	-0.0047073	0.0725597	0.0414741	-61.9092	-0.013863	0.0047188	-0.0098648	22.17494	120.8926	31.27065	-0.0070038	0.0014324	-0.0030804	-97	4
30:02:55:31	443	-0.85754	-0.00073853	5.98E-05	0.51441	0.0059547	0.0038929	-0.0050545	0.0760957	0.0376619	-61.9167	0.0044365	-0.00031543	-0.00811	22.17494	120.8926	31.27346	-0.0081558	0.0013542	-0.00066137	-97	3.5
30:02:55:51	444	-0.85734	-0.00070345	4.55E-05	0.51475	0.0028	0.004837	-0.0029755	0.0717924	0.0370256	-61.9613	0.0013523	0.0032749	0.0031796	22.17494	120.8926	31.27805	-0.0064468	0.0018272	0.0011597	-98	3.5
30:02:55:71	445	-0.85733	-0.00070209	-3.71E-05	0.51476	0.001791	0.0045738	0.00055933	0.0667851	0.0450636	-61.9631	-0.033051	0.010971	0.019394	22.17494	120.8926	31.26984	-0.0054016	0.001627	-0.0031281	-98	3.5
30:02:55:90	446	-0.85742	-0.00072597	3.36E-05	0.51462	0.0024414	0.0065956	-0.0032368	0.0733127	0.0395047	-61.9435	-0.010811	-0.0021935	-0.00035667	22.17494	120.8926	31.26875	-0.0058136	0.00063801	-0.0030251	-98	3.75
30:02:56:10	447	-0.85738	-0.00076791	3.51E-05	0.51469	0.0033092	0.0063705	-0.003315	0.0775144	0.0418443	-61.9534	0.018402	0.0098953	-0.0085144	22.17494	120.8926	31.26001	-0.0078888	-0.00041056	-0.0052338	-98	3.5
30:02:56:29	448	-0.85693	-0.00075434	3.51E-05	0.51543	0.0028763	0.0033455	0.0020142	0.0761473	0.0411068	-62.0525	0.025223	0.024704	0.0022202	22.17494	120.8926	31.2586	-0.0055161	0.0010366	-0.0045357	-97	3.5
30:02:56:49	449	-0.85673	-0.00073019	-4.32E-07	0.51576	-0.00024462	0.0083084	-0.0040855	0.0716609	0.0431981	-62.0964	0.017395	-0.039063	-0.012077	22.17494	120.8926	31.26051	-0.0043297	0.0025902	-0.0034943	-100	3.75
30:02:56:69	450	-0.85673	-0.00070686	3.10E-05	0.51577	0.00039458	0.0057144	-0.0017471	0.0712244	0.0387394	-62.0982	-0.0063705	0.0026817	0.0035152	22.17494	120.8926	31.26186	-0.0035343	0.0020409	-0.0010138	-100	3.25
30:02:56:88	451	-0.85673	-0.00076777	5.27E-05	0.51577	0.002306	0.0077438	-0.0061111	0.078491	0.0402006	-62.0976	0.038361	0.02269	-0.0089569	22.17494	120.8926	31.26241	-0.0055542	0.0023899	-0.0010519	-102	3.25
30:02:57:08	452	-0.85676	-0.00075281	0.00012392	0.51572	0.0023689	0.003746	0.0014896	0.0812324	0.032323	-62.0908	0.031097	-0.016617	-0.026581	22.17494	120.8926	31.2573	-0.0067978	0.0025883	-0.002409	-103	3
30:02:57:27	453	-0.85662	-0.00070115	4.40E-05	0.51594	0.0014191	0.0058441	-0.0016727	0.0714265	0.0371369	-62.1212	-0.017136	-0.011398	-0.014938	22.17494	120.8926	31.25376	-0.0067558	0.0022755	-0.0023079	-104	3
30:02:57:47	454	-0.85638	-0.00069056	3.52E-05	0.51634	0.00062132	0.003624	0.0017738	0.0698491	0.037408	-62.1747	-0.0053673	0.0026779	0.0051765	22.17494	120.8926	31.25102	-0.0045738	0.0030441	-0.00076628	-97	3.75
30:02:57:67	455	-0.85621	-0.00067959	2.12E-05	0.51664	-0.00105	0.0090027	-0.0025215	0.0679318	0.0381531	-62.2136	-0.0022335	-0.022339	-0.0058174	22.17494	120.8926	31.24645	-0.0029907	0.003006	0.0010138	-97	3.75
30:02:57:86	456	-0.85619	-0.00070199	4.87E-05	0.51666	0.0034351	0.0030804	-0.0011826	0.0717597	0.0367796	-62.2175	0.013741	-0.014793	-0.022186	22.17494	120.8926	31.2374	-0.005024	0.0028572	-0.0010672	-100	3.75
30:02:58:06	457	-0.85624	-0.00067932	6.37E-05	0.51658	0.0027256	0.0057945	-0.0028725	0.0704217	0.0339671	-62.2065	0.019501	0.025375	-0.0037098	22.17494	120.8926	31.23791	-0.0066643	0.0032082	0.0010376	-101	3.75
30:02:58:25	458	-0.85631	-0.00066468	-2.14E-05	0.51646	0.00031781	0.0049171	0.0026703	0.0639546	0.0414393	-62.1907	0.0020485	-0.019089	-0.01313	22.17494	120.8926	31.23507	-0.0071259	0.0020847	-0.0020676	-99	3.5
30:02:58:45	459	-0.85612	-0.00063988	2.46E-05	0.51678	-0.0013599	0.0094147	-0.0024719	0.0642342	0.0354747	-62.2328	0.0064964	-0.0059052	-0.018661	22.17494	120.8926	31.22998	-0.0056763	0.0029011	-0.0043488	-99	4
30:02:58:65	460	-0.85604	-0.00066321	3.01E-06	0.5169	0.0012245	0.0044975	0.0006218	0.0652361	0.0389885	-62.2497	0.0083237	0.0011282	-0.0015774	22.17494	120.8926	31.226	-0.0059853	0.0026131	-0.0051422	-98	3.5
30:02:58:84	461	-0.85604	-0.0006764	4.80E-05	0.5169	0.0050774	0.0024681	-0.0011091	0.0691961	0.0353546	-62.2494	0.0035706	0.0057487	-0.0040207	22.17494	120.8926	31.21969	-0.0077362	0.0025444	-0.0064278	-97	3.75
30:02:59:04	462	-0.85595	-0.00068147	2.00E-05	0.51706	0.0014572	0.0060272	-0.00061321	0.0680251	0.0384179	-62.2701	0.026993	0.019638	-0.010353	22.17494	120.8926	31.21856	-0.0076218	0.0017939	-0.0070381	-98	3.75
30:02:59:23	463	-0.8557	-0.00063369	-4.89E-05	0.51747	-0.0020981	0.010223	2.15E-05	0.0592393	0.0423686	-62.3248	-0.013077	0.0092773	0.00075245	22.17494	120.8926	31.22018	-0.0055542	0.0030804	-0.0035782	-98	4
30:02:59:43	464	-0.85568	-0.00063466	-2.42E-05	0.51751	-0.00067806	0.010254	-0.005394	0.0607971	0.0400067	-62.3308	-0.015366	-0.017975	-0.0086288	22.17494	120.8926	31.218	-0.006546	0.0041962	-0.0020561	-99	4
30:02:59:63	465	-0.85578	-0.00064047	4.11E-06	0.51733	0.0021496	0.0051689	-0.0028381	0.0630515	0.0375658	-62.3072	-0.010567	0.0073853	0.0026665	22.17494	120.8926	31.21641	-0.007473	0.0033836	-0.0011158	-100	4
30:02:59:82	466	-0.85578	-0.00066698	1.32E-05	0.51734	0.0011206	0.0057907	-0.00034308	0.066191	0.0382435	-62.3083	0.028671	0.035278	0.0075607	22.17494	120.8926	31.20694	-0.0073166	0.0036583	-0.0033245	-97	4
30:03:00:02	467	-0.85552	-0.00066014	-2.96E-05	0.51777	0.00073099	0.0061455	0.0036221	0.0629588	0.0420727	-62.3662	0.016556	0.0026188	-0.011612	22.17494	120.8926	31.20274	-0.0066833	0.0034389	-0.0023689	-99	3.75
30:03:00:22	468	-0.85557	-0.00064398	-4.15E-05	0.51769	0.0014038	0.0089874	-0.00317	0.0606748	0.0422701	-62.3555	-0.010864	-0.0063553	-0.010986	22.17494	120.8926	31.19944	-0.0080566	0.0022163	-0.0029621	-97	4
30:03:00:41	469	-0.85542	-0.00064798	-5.38E-05	0.51793	0.001296	0.004509	0.0015182	0.0603268	0.0437273	-62.3875	-0.0001986	0.02037	0.0050316	22.17494	120.8926	31.19959	-0.0071297	0.0035439	-0.0042419	-97	3.75
30:03:00:61	470	-0.85542	-0.00063744	-4.80E-05	0.51793	-0.00027609	0.009201	-0.0035229	0.0596352	0.0425388	-62.3871	0.019455	0.010773	-0.0023193	22.17494	120.8926	31.19565	-0.0064201	0.0041199	-0.0054588	-98	3.75
30:03:00:80	471	-0.85536	-0.00063724	-2.92E-05	0.51804	0.00061512	0.0056572	0.0018835	0.060725	0.0406935	-62.4019	0.0062103	0.017944	0.0038605	22.17494	120.8926	31.19727	-0.0066414	0.0037842	-0.0049591	-98	3.75
30:03:01:00	472	-0.85525	-0.00065489	-5.73E-06	0.51821	0.0014429	0.0084152	-0.0035973	0.0638421	0.0394508	-62.4249	0.019241	0.016098	-0.0065079	22.17494	120.8926	31.19691	-0.0071602	0.0047569	-0.0043716	-97	3.75
30:03:01:19	473	-0.85523	-0.00062018	-7.02E-05	0.51825	0.00065804	0.0040894	0.002037	0.0566077	0.0437138	-62.4296	-0.0046158	0.0037994	-0.010445	22.17494	120.8926	31.19643	-0.0068588	0.0040741	-0.0031319	-99	4
30:03:01:39	474	-0.85528	-0.00061305	-2.44E-05	0.51816	-0.0017958	0.0097198	-0.0028095	0.0586375	0.038789	-62.418	0.02063	-0.012871	-0.011826	22.1752	62.4383	1.62E-24	-0.0063477	0.0031147	-0.0061989	-96	-0.5
30:03:01:59	475	-0.85528	-0.00061969	-1.65E-05	0.51816	-0.00012207	0.0043182	0.001955	0.059755	0.0384125	-62.4176	0.014435	0.034332	0.00086975	22.17494	120.8926	31.18582	-0.0076027	0.0042419	-0.0079346	-98	3.5
30:03:01:78	476	-0.85506	-0.00062723	-4.28E-05	0.51853	0.0017099	0.0086365	-0.004837	0.058913	0.0414666	-62.4673	0.011482	-0.0070953	-0.0048943	22.17494	120.8926	31.18337	-0.0076294	0.003191	-0.0068779	-99	3.75
30:03:01:98	477	-0.85504	-0.00059213	-1.60E-05	0.51856	0.0019779	0.005764	-0.0018225	0.057065	0.0367571	-62.4713	-0.0060539	0.0080185	0.0034237	22.17494	120.8926	31.18251	-0.0086441	0.0039253	-0.0047112	-101	3.5
30:03:02:18	478	-0.8551	-0.00058042	-2.58E-05	0.51846	0.0014944	0.0069542	-0.003849	0.0553394	0.037014	-62.4585	-0.02977	0.01281	-0.0026131	22.17494	120.8926	31.18501	-0.008873	0.0048027	0.0010586	-101	3
30:03:02:37	479	-0.85481	-0.00061391	7.93E-06	0.51893	0.0011044	0.006073	-0.0035706	0.0606066	0.0357298	-62.5214	0.010193	-0.019501	-0.017075	22.17494	120.8926	31.18768	-0.0068779	0.0057945	0.86523	-88	-5.75
30:03:02:57	480	-0.85482	-0.00061215	2.36E-05	0.51697	0.0010099	0.38379	-5.79E-05	0.0614869	0.0340196	-62.329	0.029282	0.0011435	0.00078773	22.17494	120.8926	31.18654	-0.0084	0.0053825	0.0016975	-97	0.25
30:03:02:76	481	-0.85491	-0.00062729	-5.93E-05	1.5375	0.0032158	0.0025749	0.0006566	0.01647776	0.03758949	-121.8498	-0.018829	0.011223	0.0018969	22.17494	120.8926	31.18505	-0.0099564	0.0033054	0.0011415	-96	3.75
30:03:02:96	482	-0.85465	-0.00058609	-5.63E-05	0.5192	0.0030155	0.0026875	0.00078964	0.0540503	0.0403825	-62.557	-0.033569	-0.0084534	-0.0040894	22.17494392	120.6738205	185082896	-0.0077705	0.0037518	0.0019503	-91	0
30:03:03:16	483	-0.85461	-0.00059852	-8.61E-05	0.51926	0.0019522	0.0066032	-0.0035343	0.0534913	0.0440449	-62.5657	-0.016922	-0.0089493	-0.0033436	22.17494	120.8926	31.19269	-0.0074234	0.0034351	0.00090456	-99	3.5
30:03:03:35	484	-0.85465	-0.00058435	-8.40E-06	0.5192	0.0034809	0.0035591	-0.002264	0.0567292	0.0355888	-62.5572	-0.018127	-0.0014753	-0.0019045	22.17494	120.8926	31.19119	-0.0082321	0.0042496	0.0007019	-97	3.75
30:03:03:55	485	-0.85445	-0.00060358	-5.77E-05	0.51954	0.0046082	0.005825	-0.0052185	0.0556608	0.0415858	-62.6025	-0.0050011	-0.012642	0.00036812	22.17494	120.8926	31.19145	-0.0079422	0.0035191	0.00084639	-97	3.5
30:03:03:75	486	-0.85442	-0.00058791	-6.47E-05	0.51958	0.0049706	0.0018816	0.00085402	0.0537093	0.0413395	-62.6083	-0.025803	0.0035439	0.0094681	22.17494	120.8926	31.19412	-0.0084381	0.0026703	0.00046492	-97	3.75
30:03:03:94	487	-0.85444	-0.00057397	-5.41E-05	0.51955	0.0034065	0.0064125	-0.0053024	0.0529755	0.0394714	-62.6039	-0.02684	-0.009285	-0.00059605	22.17494	120.8926	31.19316	-0.0079727	0.0020485	-0.0024357	-98	3
30:03:04:14	488	-0.8544	-0.00058165	-5.78E-05	0.51962	0.0054092	0.0034447	-0.0042992	0.0535081	0.0402895	-62.6136	-0.026764	-0.020233	-0.01194	22.17494	120.8926	31.19394	-0.0084839	0.0020866	-0.0042419	-98	3.25
30:03:04:33	489	-0.85438	-0.00057644	-1.11E-05	0.51964	0.0070229	0.0042534	-0.0064507	0.0557748	0.0354138	-62.6169	0.0042076	0.017319	-0.0037479	22.17494	120.8926	31.18852	-0.0090714	0.0025578	-0.0059319	-97	3.25
30:03:04:53	490	-0.85446	-0.00057175	-6.85E-05	0.51951	0.0037479	0.004879	-0.0021019	0.0519051	0.0407427	-62.5989	-0.010925	0.016724	-0.0016279	22.17494	120.8926	31.19207	-0.0093307	0.0015306	-0.0041924	-98	3
30:03:04:73	491	-0.8543	-0.00053499	-6.56E-05	0.51978	0.003891	0.0072098	-0.0058289	0.0484657	0.0382864	-62.635	-0.031464	-0.017471	0.009079	22.17494	120.8926	31.19959	-0.009613	0.003809	0.001255	-98	2.75
30:03:04:92	492	-0.85429	-0.00054046	-6.19E-05	0.51981	0.0047989	0.0059357	-0.0057373	0.0492199	0.0382537	-62.6383	-0.018219	0.0099792	0.0056572	22.17494	120.8926	31.2075	-0.0094757	0.0037632	0.0036316	-97	2.75
30:03:05:12	493	-0.85431	-0.00050402	-8.99E-06	0.51976	0.004158	0.0046692	-0.0038414	0.0488065	0.0308999	-62.6322	-0.010201	0.0051422	0.0040359	22.17494	120.8926	31.20934	-0.0093155	0.0046272	0.0036163	-97	3.25
30:03:05:32	494	-0.85413	-0.00055036	-7.09E-05	0.52007	0.0048256	0.0030651	0.00046802	0.0496393	0.0397427	-62.6732	0.001255	-0.0069084	-0.0021935	22.17494	120.8926	31.21853	-0.0084381	0.0033627	0.0053177	-97	3
30:03:05:51	495	-0.85394	-0.00051931	-7.38E-05	0.52036	0.0047455	0.003933	-0.0017271	0.0464181	0.0381847	-62.7134	-0.012344	0.01593	0.00030804	22.17494	120.8926	31.22231	-0.0080643	0.0034885	0.004734	-97	3.25
30:03:05:71	496	-0.85386	-0.00053844	-7.20E-05	0.5205	0.0047493	0.0027447	-0.0011606	0.0483885	0.039162	-62.732	-0.012817	0.0065765	0.0033398	22.17494	120.8926	31.22606	-0.0080948	0.0033092	0.0026932	-98	2.75
30:03:05:91	497	-0.85381	-0.00052289	-5.46E-05	0.52059	0.004467	0.0061073	-0.0049438	0.0479008	0.0365359	-62.7431	0.0001272	-0.011169	-0.0054321	22.17494	120.8926	31.23236	-0.0069923	0.0027161	0.00019133	-98	2.75
30:03:06:10	498	-0.8538	-0.00052979	-8.29E-05	0.52061	0.0035629	0.0061874	-0.0040855	0.0468912	0.0397117	-62.7457	0.0012102	0.018936	0.00055027	22.17494	120.8926	31.2321	-0.0070114	0.0036316	-0.00063038	-97	3
30:03:06:30	499	-0.85376	-0.0005208	-3.35E-06	0.52066	0.0050049	0.0011787	0.0013809	0.0507518	0.0314007	-62.7534	0.034119	0.013275	-0.0076828	22.17494	120.8926	31.23682	-0.0068855	0.004158	0.0025673	-97	3
30:03:06:49	500	-0.85347	-0.00052809	-8.64E-05	0.52114	0.0047836	0.0068207	-0.0055122	0.0464859	0.0399897	-62.8171	-0.0082092	0.0031052	-0.002203	22.17494	120.8926	31.24015	-0.005722	0.0033894	0.0021458	-98	3
30:03:06:69	501	-0.85339	-0.00051085	-4.81E-05	0.52127	0.0057526	0.005867	-0.0066872	0.0470861	0.0352142	-62.8351	0.0017605	0.0098267	0.00037098	22.17494	120.8926	31.24616	-0.0056305	0.0029984	0.002491	-97	3.25
30:03:06:89	502	-0.85337	-0.00050836	-3.33E-05	0.5213	0.0045319	0.0051346	-0.0039024	0.0477228	0.0336236	-62.8392	0.013702	0.0037594	-0.0010567	22.17494	120.8926	31.24764	-0.0046959	0.0029888	0.00011092	-96	2.75
30:03:07:08	503	-0.85335	-0.00051261	-5.61E-05	0.52134	0.0029316	0.0049591	-0.0020676	0.0467728	0.0361142	-62.8449	0.028824	0.0010328	-0.014366	22.17494	120.8926	31.24313	-0.0040131	0.0037231	-0.0015612	-98	2.5
30:03:07:28	504	-0.85345	-0.00049369	-7.79E-05	0.52118	0.0043564	0.0063705	-0.0056152	0.0436287	0.0371033	-62.8232	-0.013947	0.017151	0.0036888	22.17494	120.8926	31.24422	-0.0053024	0.0041695	-0.0046082	-97	3
30:03:07:48	505	-0.85336	-0.00049609	-5.34E-05	0.52132	0.0047112	0.0032253	-0.0023003	0.0453194	0.0348603	-62.8419	0.011024	0.0018291	-0.0094986	22.17494	120.8926	31.2519	-0.005497	0.0028687	0.0011387	-97	3.25
30:03:07:67	506	-0.8531	-0.00048589	-0.00010172	0.52174	0.0030689	0.0071869	-0.0054893	0.041419	0.0389937	-62.8982	0.00056124	0.012985	-0.0013113	22.17494	120.8926	31.26167	-0.0033398	0.0033646	0.0040817	-97	3.5
30:03:07:87	507	-0.85311	-0.00046946	-7.73E-05	0.52173	0.0029621	0.0026112	0.00034189	0.0412714	0.0356261	-62.8968	-0.0078125	0.00089884	-0.010254	22.17494	120.8926	31.26136	-0.0033665	0.0037708	0.0033321	-98	3.75
30:03:08:06	508	-0.85317	-0.00048262	-7.30E-05	0.52164	0.0050507	0.0030384	-0.0010452	0.04282	0.0359856	-62.8841	-0.0092926	-0.0015478	-0.0045319	22.17494	120.8926	31.26848	-0.0047188	0.0035305	0.003994	-98	3.5
30:03:08:26	509	-0.85335	-0.00049653	-7.03E-05	0.52133	0.0059509	0.0009861	-0.00048041	0.0443552	0.0365351	-62.8432	0.010155	0.01252	-0.0044823	22.17494	120.8926	31.27393	-0.0066872	0.0034008	0.0028496	-98	3.25
