UTC,Pack_count,q0,q1,q2,q3,RollRate,PitchRate,YawRate,Roll,Pitch,Yaw,FreeAccX,FreeAccY,FreeAccZ,Lat,Long,Height,VelX,VelY,VelZ,LoRaRSSI,LoRaSNR,
20:58:41:66,0,0.99286   -0.015175    0.022174    -0.11625,-0.027435   -0.039673     0.38989,-2.02401      2.32129     -13.3978,0.48975      1.6748     -1.0303,24.80716      121.0242      51.55797,0.244629    -0.489746       51.558,-42,6.5,
20:58:41:97,0,0.99794   -0.012811    0.024277   -0.057921,0.036011   -0.018936     0.34521,-1.6281      2.6921     -6.6818,-0.24219     0.31641     -1.0537,24.80716      121.0242      51.57296,0.311279    -0.381348       51.573,-40,6.25,
20:58:42:28,0,0.99951   -0.013926    0.027176  -0.0070265,-0.090759    0.082092     0.31323,-1.6195      3.1029    -0.84943,0.36841     -1.4326     0.40088,24.80716      121.0242      51.57179,0.365723     -0.29126      51.5718,-37,6.5,
20:58:42:59,0,0.999    -0.01106    0.028786    0.032379,0.20032   -0.084106     0.20715,-1.1613      3.3383       3.679,-0.65234      1.3496     0.15259,24.80716      121.0242      51.58306,0.211182    -0.220703      51.5831,-36,6.5,
20:58:42:91,0,0.99814   -0.006144    0.019705    0.057339,0.058533   -0.071411     0.11835,-0.57374      2.2949      6.5641,-0.56787     0.76953     0.61816,24.80716      121.0242      51.59566,0.153198   -0.0999146      51.5957,-36,6.5,
20:58:43:22,0,0.99727  -0.0042393    0.014068    0.072398,0.17249   -0.030975     0.10626,-0.36791       1.643      8.2991,0.40674    -0.19653      -1.917,24.80716      121.0242      51.59148,0.171997     -0.13855      51.5915,-35,6.5,
20:58:43:53,0,0.99582   0.0025334   0.0042013    0.091183,0.005558   -0.064941     0.14465,0.333008     0.452961      10.4648,1.957     0.84277      1.7451,24.80716      121.0242      51.61837,0.254883    -0.233521      51.6184,-33,5.75,
20:58:43:84,0,0.99416   0.0072458  -0.0012415     0.10762,-0.16528  -0.0048943     0.12323,0.810179    -0.230794      12.3555,1.0615     -3.2559     0.69629,24.80716      121.0242      51.62243,0.462158    -0.258057      51.6224,-33,6,
20:58:44:15,0,0.99239  0.00084116  -0.0012135      0.1231,-0.15063   -0.016953    0.074402,0.0785385     -0.14987      14.1415,0.15637      1.8213      0.8335,24.80716      121.0242      51.61755,0.668945    -0.310303      51.6175,-35,7,
20:58:44:46,0,0.99134  -0.0068336  -0.0037251     0.13112,-0.14502   -0.049408     0.06897,-0.832299    -0.320487      15.0716,0.81836    -0.95703     0.75195,24.80715      121.0242      51.61152,0.848633    -0.577148      51.6115,-32,6,
20:58:44:77,0,0.99106   0.0014437   -0.011788     0.13291,-0.091919    -0.35742    0.045105,-0.015589     -1.36089      15.2767,0.29834      1.7734      2.5879,24.80715      121.0242      51.62472,1.00977    -0.810547      51.6247,-33,6.25,
20:58:45:08,0,0.99227    0.016562   -0.026691     0.12009,-0.30127    -0.19177    -0.19861,1.51846     -3.26457      13.7586,1.832    -0.31567    -0.57861,24.80715      121.0242      51.63776,1.2998     -0.96582      51.6378,-35,6.5,
20:58:45:39,0,0.99751    0.012994   -0.027324    0.063751,0.10797    0.062561    -0.39282,1.2879       -3.22      7.2775,0.64355     -2.9609    -0.39404,24.80715      121.0242       51.6447,1.61133     -1.36914      51.6447,-40,6.25,
20:58:45:71,0,0.99981     0.00172   -0.019198   0.0028396,-0.08606     0.02919    -0.32837,0.19096     -2.2006     0.32178,-0.28711     -1.9893      1.3672,24.80715      121.0242      51.66413,1.81055     -1.84473      51.6641,-49,6.25,
20:58:46:01,0,0.99974  0.00069461    -0.01581   -0.016652,0.4187    0.043823    -0.11414,0.1098     -1.8102     -1.9102,1.0557     -1.0645    -0.54199,24.80715      121.0242      51.73105,2.03711     -2.47852      51.7311,-47,6.5,
20:58:46:33,0,0.99925   0.0011028   -0.013582   -0.036337,0.12195   -0.037323    -0.14343,0.1829     -1.5508     -4.1677,-1.7715     -4.6406       -3.25,24.80714      121.0242      51.76275,2.24023     -2.94922      51.7628,-59,5.75,
20:58:46:64,0,0.99915  -0.0083219   -0.016045    -0.03697,-0.021927     0.14001   -0.080444,-0.88534     -1.8726     -4.2236,0.81787     -3.9531    -0.95215,24.80714      121.0242      51.81074,2.60156     -3.47852      51.8107,-58,6,
20:58:46:95,0,0.99844   0.0013594   -0.024482   -0.050081,-0.056671   -0.027359    -0.22754,0.29638     -2.7944     -5.7502,3.3516     -0.3147     0.75537,24.80713      121.0242       51.8856,2.91797     -3.95117      51.8856,-69,4,
20:58:47:26,0,0.99735   -0.025188    0.007134   -0.067887,0.43994     0.64502    0.014175,-2.9357     0.61939     -7.8038,-0.5957     -2.7598     -8.3359,24.80713      121.0242      51.97977,3.25     -4.62891      51.9798,-68,4,
20:58:47:57,0,0.99872    -0.02218   0.0094524   -0.044533,-0.2981    -0.02124     0.11975,-2.5878     0.96864     -5.1281,0.52441     -2.8027     -1.4629,24.80712      121.0243      52.03531,3.5625     -5.06641      52.0353,-68,5,
20:58:47:88,0,0.99928  -0.0068892  -0.0053118   -0.036894,0.060333   -0.081116   -0.024994,-0.76649    -0.63739     -4.2246,0.96338    -0.69385      3.0566,24.80711      121.0243      52.10602,4.01563     -5.54297       52.106,-66,5.5,
20:58:48:19,0,0.9991 -0.00020749    -0.01636   -0.039054,0.31934    0.055145   -0.088074,0.049486     -1.8743     -4.4778,-0.56348     -3.9492   -0.016327,24.8071      121.0243      52.17441,4.46875     -6.16406      52.1744,-74,1.25,
20:58:48:51,0,0.99877  -0.0064913   -0.016533   -0.046208,-0.4563    -0.12988   -0.065308,-0.65578      -1.927     -5.2868,0.93066     -3.8711      0.5708,24.80709      121.0243      52.26895,4.79297     -6.58984       52.269,-68,5,
20:58:48:82,0,0.99877  -0.0010121  -0.0090268   -0.048822,0.26221     0.15808   -0.058136,-0.065342     -1.0388     -5.5965,-0.84961     -2.6211     0.44019,24.80707      121.0243      52.36766,5.18359     -7.30469      52.3677,-65,5.5,
20:58:49:13,0,0.9986   -0.012317  -0.0017243   -0.051509,0.24231     0.10828    -0.03038,-1.3995    -0.27001     -5.9023,0.57471      -4.125     0.73145,24.80706      121.0244      52.50664,5.52734     -7.82422      52.5066,-70,3.75,
20:58:49:44,0,0.99875   -0.013115   0.0087624   -0.047474,0.4917     0.32275    0.024933,-1.5491     0.93153     -5.4554,0.21545      1.9658   0.0026493,24.80704      121.0244      52.68365,5.92969      -8.3125      52.6837,-69,4,
20:58:49:75,0,0.99858    -0.03173   0.0048414   -0.042445,-0.61279   -0.036377    0.023483,-3.657     0.39967     -4.8806,1.6357     -3.6953      1.6348,1625753.25       121.0243988      52.826137543,6.3125     -8.61719      52.8261,-73,2.25,
20:58:50:06,0,0.99882   -0.025854   0.0068724   -0.040481,-0.28857    0.052673    0.050201,-2.9926     0.66667     -4.6591,3.9238     0.11469     -1.6357,24.80701      121.0244      52.99116,6.66406     -9.07813      52.9912,-73,2,
20:58:50:37,0,0.9992   -0.014731   -0.011901   -0.035139,-0.25317     0.10944   -0.010475,-1.6395     -1.4222     -4.0078,3.4492     -2.2734     0.89795,24.80699      121.0245      53.15718,7.03125     -9.47656      53.1572,-75,-3.5,
20:58:50:68,0,0.99911   0.0042264  -0.0044992   -0.041763,0.080017      0.1012   -0.035156,0.50543    -0.49489     -4.7894,-1.4268    -0.79395      1.4434,24.80697      121.0245      53.36043,7.23047       -9.875      53.3604,-72,2.25,
20:58:51:00,0,0.9994  -0.0027102 -6.8182e-05   -0.034089,0.38867    0.092834   -0.023773,-0.31012   -0.018396     -3.9071,0.18201      0.8833    -0.94287,24.80695      121.0245      53.60381,7.58984     -10.3047      53.6038,-74,1,
20:58:51:30,0,0.99936  -0.0097694  -0.0075949   -0.033506,-0.45386    0.012131   -0.020477,-1.0898    -0.90731     -3.8319,1.1816     -3.5508     0.30054,2021010.875  1.5275445946e-27      54.824813843,7.88672     -10.6406      54.8248,-72,0.25,
20:58:51:62,0,0.99934   -0.015282  -0.0029655   -0.032789,-0.12695      0.1355   0.0027275,-1.7392    -0.39702     -3.7525,2.8223     -1.2627      3.9434,24.80691      121.0246      54.06661,8.16406          -11      54.0666,-69,4.5,
20:58:51:92,0,0.99943   -0.015106   0.0089852   -0.029001,0.12952     0.26782    0.041504,-1.7604     0.97889     -3.3393,1.5801     0.86621     -1.6807,24.80688      121.0246      54.15276,8.45313     -11.3672      54.1528,-72,2,
20:58:52:24,0,0.99951   -0.018544   0.0023299   -0.025279,-1.1162     -0.6499    0.014801,-2.1312     0.21313     -2.9015,1.64063     -4.11719      10.1406,24.80686      121.0247      54.29899,8.58594     -11.5078       54.299,-75,-0.5,
20:58:52:55,0,0.99963  -0.0070904   0.0091383   -0.024738,0.30396  -0.0083542     0.91064,-0.83826      1.0267     -2.8428,-0.0045967     -0.2135      6.1523,24.80684      121.0247      54.50007,8.875     -11.9688      54.5001,-78,-7.25,
20:58:52:86,0,0.99974  -0.0052402   0.0036551   -0.021845,0.45142    -0.36084   -0.022293,-0.60951     0.40562     -2.5057,1.4365      4.2148     -0.2854,24.80681      121.0247      54.69613,9.1875     -12.2656      54.6961,-76,-1.5,
20:58:53:17,0,0.99972   -0.011159   0.0044381   -0.020466,0.17407    0.016724    0.015121,-1.289     0.48226      -2.351,-0.045349     -1.7129     0.92285,24.80679      121.0248      54.87803,9.45313     -12.5469       54.878,-73,2,
20:58:53:48,0,0.9996468424797058   -0.01606303080916405  -2.01732581092503e+31   -0.02042976021766663,0.31616     0.16541   -0.012657,180 -5.678363e-30           180,0.073486     -2.9453     0.81055,24.8068      60.5119  7.50483e-16,9.7421875          -2270  7.5048321e-16,-77,-10.25,
20:58:53:79,0,0.99967   -0.016668   0.0042146   -0.018881,-0.029251      0.1333   -0.014748,-1.9189     0.44674     -2.1715,1.3018    -0.42969     -4.8984,24.80673      121.0249      55.29997,9.9375     -13.0078         55.3,-77,-3.5,
20:58:54:10,0,0.99965   -0.015509    0.010361   -0.018582,-0.22034    0.018433    0.014206,-1.7993      1.1539     -2.1479,-0.18506    -0.74902     0.88672,24.80671      121.0249       55.5365,10.1406     -13.2813      55.5365,-77,-5.5,
20:58:54:42,0,0.99961   -0.017766    0.013646   -0.016952,0.14294   0.0071259   -0.011169,-2.0627      1.5287     -1.9706,0.11786    -0.11786     -1.6299,24.80668      121.0249      55.70648,10.3438     -13.5234      55.7065,-76,-2.5,
20:58:54:73,0,0.99957   -0.022271    0.012719   -0.014211,-0.14343     -0.1449    0.011795,-2.5733      1.4207      -1.661,2.5527      1.3047     -1.9404,24.8066  -1.5371e-27  4.43911e-18,10.5313     -13.6953  4.43911e-18,-78,-8.5,
20:58:55:04,0,0.99964   -0.016543    0.018137    -0.01067,-0.069092    0.033875    0.018784,-1.9188      2.0578     -1.2576,-0.12292      1.2246      2.0488,24.80662       121.025      56.16662,10.7969     -13.8516      56.1666,-75,-0.5,
113:48:61:37,0,0.99952   -0.025817    0.014578  -0.0084294,-0.20251    0.078918   -0.013344,-2.9736       1.645     -1.0091,3.2227      2.6563     -3.8047,24.80659      121.0251      56.36782,11.0078     -13.8516      56.3678,-77,-5.25,
20:58:55:66,0,0.9991804957389832   -0.03257191181182861 -4.748841580529887e+29  1.406451368874919e+36,-30320        46.71875          365.25,-3.86915e-05  2.653791e-36           180,3.6504    0.015549    0.058075,24.65666      121.0251      56.57244,11.0078     -13.5859      56.5724,-78,-7.25,
20:58:56:28,0,0.99053    -0.48599    0.037743   0.0022267,0.034912    0.072266     0.07135,-52.3166      3.61925     -1.52047,0.8291     -1.5684      1.3545,24.80651      121.0252      56.83393,10.7734     -13.0859      56.8339,-77,-5.25,
20:58:56:90,0,0.99933   -0.015855    0.029519    0.015062,0.16333     0.18188    0.029526,-1.7681      3.4097      1.6744,-0.41235      0.6123     -0.1897,24.80646      121.0253      56.99685,10.6406      -12.375      56.9968,-77,-6.75,
20:58:57:21,0,0.99961  -0.0082441     0.01942    0.018277,-0.10907     -0.2019  -0.0096283,-0.90439      2.2424      2.0773,0.16052      1.0293     -0.9375,24.80643      121.0253      57.00431,10.4219     -11.9766      57.0043,-77,-6.75,
20:58:57:52,0,0.99968   0.0032732    0.016075    0.019366,-0.08783    0.010117  -0.0065117,0.41085      1.8345      2.2262,-0.82373      1.5801    -0.25854,24.80641      121.0254      57.04629,10.1953     -11.6094      57.0463,-77,-3.75,
20:58:57:83,0,0.99974  -0.0020548    0.011878  1.4245e-07,0.00012183    -0.79541 -9.9957e-05,-0.23555      1.3614  -0.0027822,-0.079163   0.0024872  -0.0016031,-2.541053798880295e+36  7.749217778026846e+21  2.722290632870872e-32,0.0038738251           1836  2.7222906e-32,-78,-12.25,
20:58:58:14,0,0.99964   0.0074965    0.016459    0.019686,0.096375   -0.059662   0.0014257,0.89637      1.8688       2.271,-2      3.6953    -0.99365,-6346.427734375           141639188480             6131518464,-0.0033473968505859 -0.00012993812561035           6131518464,-78,-12.5,
20:58:58:46,0,0.99972  -0.0017282    0.013914    0.018939,0.021515     0.10181  -0.0059128,-0.16785      1.5979      2.1682,-1.4023      0.7373     -1.2236,24.80634      121.0255       56.9511,9.27344     -10.8125      56.9511,-78,-11.25,
20:58:59:39,0,0.99904   0.0032836    0.037361    0.022623,0.3833     0.26929    0.022385,0.47408      4.2726      2.6121,-4.3555      3.6328     -5.5547,24.8064      30.2564      56.6932,8.21875     -9.35938      56.6932,-78,-7.25,
20:58:59:70,0,0.99882   -0.013678    0.034781     0.03103,-0.0021172    -0.09967    0.029205,-1.4456      4.0328       3.508,-1.7432     0.49072     -1.7842,24.80626      121.0256       56.5887,7.92578     -8.96094      56.5887,-78,-8.25,
20:59:00:01,49156,3.279148431465582e+38 -3.729190092592308e+26  3.979263255679282e+21  -2.37702396910473e+38,-0.00097752   -0.014168 -7.5877e-05,-8.54293e-11 -6.19255e-11      -71.876,1.34375         640.5   -0.07635498,-932.6527099609375       -230956245975040      56.45353317260742,7.78125     -2.65625      56.4535,-78,-11.25,
20:59:01:26,0,0.99851   0.0039944    0.020042    0.050646,-0.058746     0.26392    0.035553,0.57382      2.2706      5.8187,-1.0479       2.291    -0.92139,24.80618      121.0258      55.83434,6.51953     -7.15234      55.8343,-78,-5,
20:59:01:57,0,0.99863  0.00058058    0.018428    0.048955,-0.057312     0.25098    0.012939,0.16993       2.106      5.6162,-1.1885      2.6895     -1.8643,24.80617      121.0258      55.69089,6.15625     -6.76953      55.6909,-77,-5.5,
20:59:01:08,80,7.911236064337141e+28  -0.005133312195539474  3.924182593456615e-12    0.05061493441462517,-0.0045586     0.10394    0.017349,-7.4354e-30   5.684e-39  7.3314e-29,-1.3125     0.56738    -0.18286,24.80615      121.0258      55.53902,5.74609     -6.38672       55.539,-77,-8,
115:63:66:17,20588,2.6615e-33  0.00017993    0.016426    0.051545,0.060486     0.10876   -0.017685,35.35093    -0.3631262      179.8843,-0.60303       2.709     0.36621,24.80614      121.0258      55.38351,5.33594     -5.95313      55.3835,-77,-10.5,
20:59:04:06,0,0.99885    0.010321    0.018845    0.042824,0.177    0.082214   0.0079041,1.2748      2.1068      4.9333,-2.4668      1.7402    -0.74902,24.80609      121.0259       54.5234,2.48828     -3.17773      54.5234,-77,-8.25,
20:63:20:84,4353,8.505246432665135e+37  -0.004628709517419338    0.01402247697114944  2.794203587560607e+27,-0.0066948   -0.010872      8.8125,-6.2363e-39  1.8893e-38  3.7646e-09,121.125  0.00091123581          -5472,4.071980085893269e-22  4.139585793127784e-36       -256071285342208,24.265625             11.3828125       -256071285342208,-79,-11.75,
20:59:05:61,0,0.99939     0.01081    0.011576    0.031097,0.072449    -0.12683    0.027924,1.2796      1.2873      3.5789,-1.7861      1.9043    -0.18201,-106541252608      121.0259628295898      53.94864273071289,0.793945     -1.42383      53.9486,-78,-9.25,
20:59:05:92,0,0.99928    0.021747    0.001017    0.031209,0.19763   -0.072083    0.010361,2.4946    0.038681      3.5786,-1.6221       2.166      1.1016,24.80607       121.026      53.86965,0.475586     -1.12207      53.8697,-77,-10.25,
20:59:06:23,0,0.99937    0.017022 -0.00078894    0.030988,-0.13855     -0.0021    0.013977,1.947    -0.15079      3.5494,-0.24902      1.9395      0.7002,24.80607       121.026      53.79722,0.231934    -0.600098      53.7972,-78,-9.5,
20:59:06:54,0,0.9995   0.0055062   0.0011606    0.031185,-0.1178   0.0051346   0.0078888,0.63481     0.11326      3.5748,-0.65332      1.5273    -0.59131,24.80606       121.026      53.69548,0.0792847    -0.398193      53.6955,-78,-10,
20:59:06:85,0,0.99951  -0.0036464   0.0029491    0.031078,0.054688   0.0059967   -0.005497,-0.40715     0.35076      3.5607,-0.23279    -0.82227     0.47607,24.80606       121.026       53.6039,0.12915    -0.510254      53.6039,-77,-10,
20:59:07:16,0,0.99951  -0.0016385   0.0028766    0.031112,0.013992    0.029617   0.0075912,-0.17741     0.33532      3.5653,-0.77979     0.37915     0.16052,24.80607       121.026      53.52409,0.0792847    -0.474854      53.5241,-77,-9.5,
20:59:07:48,0,0.99952 -0.00031418  0.00044359     0.03082,0.03479   0.0023308   -0.022034,-0.034418    0.051917      3.5323,0.71729    -0.41357    -0.96729,24.80607       121.026      53.46569,0.0610962    -0.431885      53.4657,-78,-9.5,
20:59:07:79,0,0.99952   0.0015802  -0.0011521    0.030799,0.019318   -0.046082    0.035828,0.17693    -0.13753      3.5297,-0.53955      0.5127    -0.60938,24.80607       121.026      53.40227,0.056427     -0.40625      53.4023,-77,-8.75,
20:59:08:10,0,0.99952  0.00098911  -0.0012525    0.030824,-0.011879    0.023041   -0.014984,0.10887    -0.14695      3.5326,0.026825   0.0039711      1.3535,24.80607       121.026      53.34712,0.0598755    -0.375977      53.3471,-78,-8.75,
20:59:08:41,0,0.99951   0.0023824  -0.0023595    0.030999,0.00017655    -0.04007  -0.0077019,0.26449    -0.27871      3.5522,0.42236     -1.6396    -0.93359,416176704      121.0259628296        53.296459198,0.0115891    -0.365967      53.2965,-77,-8.75,
20:59:08:72,0,0.99952   0.0020599  -0.0021409    0.030983,-0.027481    0.015007   -0.046509,0.22833    -0.25253      3.5505,1.082    -0.93311     -0.7373,24.80607       121.026      53.26185,-0.0026741    -0.339844      53.2619,-78,-9.75,
20:55:09:03,0,0.9663   0.0020389  -0.0023431    0.031131,0.031341553          -5856  -0.0015497208,0.2326    -0.28536        3.69,-1.30957031      1.07324219           62464,-7.30563198895859e-38      121.1388778686523  9.697698880104922e+30,-3.9296875       -0.2462158203125  9.697698880104922e+30,-78,-10.25,
20:59:09:34,32768,0.687  -0.0043482  -0.0013511    0.031163,-0.07489   -0.037323 -0.00018466,-0.73398    -0.19206      5.1956,1.542      -6.043     -1.0537,24.80607       121.026       53.1448,0.135254    -0.378418      53.1448,-77,-10,
20:59:09:65,0,0.99941   -0.014178    0.002628    0.031046,-0.14685    0.025803     0.01741,-1.6146     0.35141      3.5536,2.0684     -3.5352    -0.16553,24.80606       121.026      53.09024,0.487305    -0.724121      53.0902,-77,-8.25,
20:59:09:96,0,0.99916   -0.019362    0.008371    0.035175,0.016739    0.090881     0.11108,-2.184      1.0365      4.0128,-0.302     -3.5957     0.68311,24.80607       121.026       53.0956,0.821289     -1.20215      53.0956,-77,-6.5,
20:59:10:27,0,0.99855   -0.013427  0.00074468  4.3065e-26,0.020401    -0.15637    0.041931,-1.5408    0.085443  -0.0011489,1.3955     -1.3711     0.51367,24.80606       121.026      53.05907,1.25195     -1.64453      53.0591,-77,-10.25,
20:59:10:90,0,0.99877  -0.0083806  -0.0045221    0.048752,0.33911     0.13379   -0.047791,-0.98451    -0.47074      5.5931,-0.062286     -3.1738     -2.7617,24.80606       121.026      53.01867,2.20313      -2.5918      53.0187,-78,-10,
20:59:11:21,0,0.99894    -0.01945  -0.0099836    0.040493,-0.47852    -0.19165   -0.055634,-2.2738     -1.0526      4.6635,10.367188           8328     0.46899414,406422.375 -1.3797569196041e-37           1276407296,2.5390625         -2.958984375           1276407296,-78,-10.75,
20:59:11:52,0,0.99946   -0.006169    0.053456    0.032069,0.50977     0.27979    0.043549,-0.51158      6.1393      3.6482,-0.0308075   0.00554276          -23,-7.2461e-38      30.2565  5.42833e-10,2.78125          -900  5.428326e-10,-77,-11.25,
20:59:11:83,0,0.99914   -0.029064   0.0023769    0.029541,0.11469      0.1759 -0.00036669,-3.3215     0.37052      3.3763,-0.6377     -2.6836   -0.014702,24.80628       121.026      53.08213,3.28125     -3.87109      53.0821,-78,-11,
20:59:12:14,49796,-278645331460096  4.382353818169564e+37     0.0608936995267868   5.11856037607932e-31,0.0066032     0.29297    0.057281,-180 -1.012424e-60  1.592273e-37,-0.00015509     -0.8291     -1.6318,24.80603      -62.5052      197.5115,50.15625     -4.265625      197.5115,-78,-11.25,
21:56:07:254,54718,-1.054766536797499e-18  2.486688068826246e+32  0.0004570266173686832    3.3262553271644e+22,0.053925   -0.088257   -0.040344,180 -1.532805e-08   2.10607e-34,0.88379     0.84717      1.5645,812833      18448.64453 -4.421279626e-35,5.9102     -6.7656 -4.4213e-35,-78,-12,
20:59:16:81,0,0.9986091256141663  -0.003022009506821632  3.233376752200586e+29 -1.005928242468719e-18,0.172485352          -19136           -7480,-180  3.539092e-28          -180,-13888    -0.718261719      1.67285156,390.3923034667969 -3.296154730924935e+21 -1.810916567837245e-30,24.375        417.25 -1.810917e-30,-78,-12.25,
21:01:05:33,0,-0.020471   -0.012865  -0.0045136      0.9997,-0.007843   0.0012665      3.8145,-0.4870493      1.484506     -177.6601,0.40917969    -0.28344727           6768,24.806  6.57085e-18       53.179,0.0548400879           18784      53.1790314,-79,-11.25,
21:01:08:29,4096,-2.5197e-12  1.4602e-16  -0.0045281     0.99972,-0.10175     0.66895    0.010864,-0.5190216  1.291375e-12          -180,-1.6689     -2.5781      4.2539,24.80598      121.0264      53.32916,-0.0267792     0.227661      53.3292,-79,-11.25,
21:01:08:44,43680,1.1773e-21  -0.0059877  -0.0054944     0.98307,0.1032715   0.004905701        -660.5,-0.6404765     0.6979254      179.9961,-1.8623      -1.624      1.5576,28.05501      121.0264      53.35387,-0.28442383           2246      53.353867,-78,-10.5,
21:01:12:31,20480,-0.02961142733693123     -1.304742813110352 -1.417892399467725e+17     0.9997268319129944,1025     0.05065918   0.0062675476,-180  2.393143e-17           180,-0.67188    -0.21594     0.87207,5.508022e-15      121.0264      53.25404,0.0385742     0.963379       53.254,-78,-12.25,
21:01:11:103,51545,2.941186251720099e-18       2353846894460928  3.196688849553987e-19 -1.330452021045193e-17,0.00186252594           11248 -2.28881836e-05,180  6.476996e-31  1.556234e-32,-7932          -7320   -0.080749512,26635274240           539256487936      54.07285308837891,3.87891      4.47656      54.0729,-78,-12.25,
21:01:11:87,0,-0.004770245403051376 -1.341562551715469e-06  4.357043779520348e+36     0.9995665550231934,0.22827    0.025467    0.067017,180 -1.254589e-37          -180,3.6309      2.5469      1.6553,24.80604      121.0263      54.11712,-3.80664      4.72656      54.1171,-78,-9.25,
107:73:204:105,13622,-2.570983409796e-31           863411904  8.076711188031e-32    1.2322463153e-29,-0.000527381897     0.243408203          -14520,-180 -1.635431e-36  1.071937e-38,2.9766    0.016861   -0.004734,4.575910548887464e+20      121.0262756347656      54.20078277587891,-2.375      5.25781      54.2008,-78,-12,
21:01:18:08,0,-0.011586   -0.018101  -0.0092662     0.99973,-0.085327     0.12744   0.0017242,-1.038242       2.08638      -178.691,-4840    -0.14709473       10.96875,4.764840202595212e+29      121.0258255004883      55.02656173706055,-7.11328      7.71484      55.0266,-78,-8.75,
21:01:18:71,0,-0.014255   -0.014083  -0.0062843     0.99978,-0.056702    0.050964    0.020737,-0.6972628      1.623883     -178.3761,1.2119       1.333     -1.2969,6.16997      30.2564      55.0461,-7.28125      7.87891      55.0461,-78,-8,
21:01:20:57,0,0.014501  -0.0018461  -0.0092231     0.99985,-0.16113 -7.5102e-06   -0.057434,-1.059862     0.1961926      178.3363,-8800      3.6777344    -0.99316406,24.80642      121.0256      55.13744,-31     -8.47656      55.1374,-78,-12,
21:01:20:89,0,0.01681  -0.0088973    0.011327     0.99976,0.0578    -0.06192   -0.039185,1.280867      1.041183       178.085,0.66846     -2.8262     -1.7285,24.80644      121.0256      55.15696,-7.17188      8.38281       55.157,-79,-6.75,
21:01:21:19,0,0.018887   -0.011613   0.0060875     0.99974,-0.028046     0.13696   0.0084305,0.6724644      1.343649      177.8433,-0.1687     -0.5498      2.4023,24.80646      121.0255      55.15476,-7.04688      8.27344      55.1548,-78,-4,
21:01:21:82,0,0.026262  -0.0087919   0.0061945      0.9996,0.18115   0.0033894   -0.068176,0.6832172      1.025763      176.9962,-0.42188    -0.17346     0.21057,24.80649      121.0255      55.12558,-6.69922      7.90234      55.1256,-79,-6,
111:103:16:00,0,0.029815   -0.020198  -0.0020589     0.99935,-0.060455     0.27368    0.037628,-0.3050386      2.306586      176.5761,-0.45264    -0.18335      0.7832,24.80651      121.0255      55.09145,-6.59766      7.77734      55.0915,-76,0.25,
21:01:22:75,0,0.023655   -0.019068   -0.010052     0.99949,0.10699    -0.12708   0.0068893,-1.203905      2.157202      177.2658,0.47681    -0.35889     -2.2422,24.80654      121.0254      55.05036,-6.54297      7.79297      55.0504,-80,-7.25,
21:01:23:06,0,0.02351309731602669 -4.799691206574892e+36 -1.347497536051704e-14  1.246883759035861e-29,0.082336    -0.26001  -0.0091324,-180  2.976907e-64   3.21712e-49,0.47607   -0.044342     0.51758,24.010654       1424.406  2.9878874e-18,-6.5234     -7.8594  2.9879e-18,-78,-11.5,
21:01:23:37,0,0.023997   -0.010429  -0.0057147     0.99964,0.7876     0.27002   0.0045471,-0.68346       1.17906      177.2427,1.0107    -0.87305      3.0176,24.80657      121.0253      55.01729,-6.64844      7.92188      55.0173,-78,-5.25,
21:01:23:99,0,0.023703   0.0016147   -0.016465     0.99958,-1.041    -0.13525    0.081421,-1.881961    -0.2296721       177.287,-4.0391       3.373      2.5371,24.8066      121.0253      55.08633,-6.77344      7.95703      55.0863,-77,-1.5,
21:01:24:30,0,0.012476  -0.0077229    0.013823     0.99948,0.10657    0.040955   -0.013405,1.57353     0.9048838      178.5821,-1.9863    -0.87939     0.75977,24.80662      121.0253       55.0744,-6.83594      8.16406      55.0744,-77,-5.5,
21:01:24:61,0,0.030873  -0.0041325   0.0031928     0.99951,-0.521     -0.3689   -0.043854,0.3510858     0.4846169      176.4631,-2.0645      0.9751      1.4229,24.80663      121.0252        55.058,-6.76953       8.1875       55.058,-78,-6.25,
21:01:25:24,0,0.040484  -0.0061516   0.0054574     0.99915,-0.18713   -0.040436   -0.029129,0.5963607     0.7296578      175.3633,-0.43652     -2.1348     -4.5117,14.35264015197754  2.018946546164294e+36      55.08373641967773,-6.76953      8.51563      55.0837,-79,-10.25,
21:01:25:55,0,0.043436  -0.0054089  -0.0035715     0.99904,0.09967    -0.13965   -0.028946,-0.4358192     0.6014524      175.0186,-1.7666     -0.5835     0.62891,24.80669      121.0252      55.09829,-6.76953      8.66406      55.0983,-75,0.25,
21:01:25:85,0,0.045281   -0.011843   -0.003111      0.9989,0.16577     0.21484  0.00032949,-0.4176684      1.339622      174.8041,-0.49829    -0.52979    -0.80908,24.8067      121.0251      55.10944,-6.86328         8.75      55.1094,-78,-5.5,
21:01:26:16,0,0.045217   -0.019273  -0.0077048     0.99876,0.0477905     -16.5313     0.373047,-0.9824211      2.166347       174.797,0.65771     0.55762      1.2227,24.80672      121.0251      55.10358,-6.87891      8.84375      55.1036,-74,0.75,
21:01:26:48,0,0.043886   -0.019233  -0.0009669     0.99885,0.50977      0.1626  -0.0040054,-0.2075466      2.197088      174.9645,0.70508     -2.0156     0.46021,24.80674      121.0251      55.12407,-6.94141      8.92188      55.1241,-76,-1.75,
21:01:26:79,0,0.042984   -0.013489   -0.013092      0.9989,-0.00074482     0.14417    0.016541,-1.565793      1.479732      175.0518,1.007813     -1.508789           233,2.24265e-11      30.2563      55.1463,-7       8.9375      55.1463,-77,-7.5,
21:01:27:10,0,0.043894   -0.014157  -0.0028047     0.99893,0.12756  -0.0051956  -0.0030918,-0.392416      1.606628      174.9624,1.7764     0.81738    0.027786,24.80678       121.025      55.18404,-7.01172      9.05469       55.184,-75,1.25,
21:01:27:41,0,0.047338   -0.013678  -0.0024236     0.99878,0.16187     0.14624   -0.016571,-0.3517154       1.55252      174.5682,1.9531    -0.41895     -1.8594,24.8068       121.025      55.21371,-7.05078      9.13281      55.2137,-78,-8,
21:01:27:72,0,0.047159  -0.0027028   -0.034758     0.99828,-0.54736    0.068726 -0.00010586,-3.993934     0.1213478      174.5864,-3.4395      4.6719    -0.13672,24.80681       121.025      55.25684,-7.17969      9.28125      55.2568,-70,4.25,
21:01:28:03,0,0.050479   -0.014159    0.016144     0.99849,0.2915    -0.21106     -0.0401,1.766383      1.713648      174.2382,-1.7881     -6.2305     -3.8184,24.80683      121.0249      55.29145,-7.10156      9.21875      55.2915,-76,-1.25,
21:01:28:34,0,0.04763    -0.01592   -0.027369     0.99836,-0.77588    -0.39941   -0.033112,-3.221125       1.67212      174.4902,-2.4395      2.1836     -6.1055,24.80685      121.0249      55.26283,-7.20703      9.19531      55.2628,-75,0.25,
21:01:28:65,0,0.043567   -0.023516  -0.0058974     0.99876,0.95752   -0.055176   -0.011604,-0.79323      2.662925      174.9861,-0.0018225     0.36133      2.4219,24.80687      121.0249      55.28714,-7.27734      9.42969      55.2871,-74,2,
21:01:28:96,0,0.038382    -0.01178  -0.0043302     0.99918,-0.14111    -0.34839   0.0022278,-0.5477662      1.329868       175.594,0.73096      1.3086    -0.48218,24.80689      121.0248      55.28062,-7.27344       9.3125      55.2806,-74,1.75,
21:01:29:28,0,0.042273  -0.0062321 -0.00015834     0.99909,-0.066406     0.12634   -0.021667,-0.04832054     0.7127446       175.154,-0.08551    -0.57813      0.1239,24.80691      121.0248      55.31135,-7.40234        9.375      55.3114,-72,2.5,
21:01:29:58,0,0.045111   -0.012722  -0.0019279      0.9989,0.20337    0.096619   -0.024673,-0.2865374      1.446361      174.8248,0.22546      1.2285    -0.44897,24.80693      121.0248      55.33836,-7.41406      9.47656      55.3384,-73,2.75,
21:01:29:90,0,0.045027   -0.014516 -7.3273e-05     0.99888,-0.13916    -0.12274    0.017349,-0.08332131      1.661419      174.8368,1.0059    -0.39111    -0.73291,24.80695      121.0247      55.31178,-7.33203      9.49219      55.3118,-72,3.5,
21:01:30:21,0,0.046655  -0.0092802 -0.00060046     0.99887,-0.22424    -0.17126   -0.029617,-0.1183647       1.05908      174.6505,-1.165   -0.041138     0.59912,24.80697      121.0247      55.33185,-7.32813          9.5      55.3319,-75,1.75,
21:01:30:52,0,0.047712    -0.01458   0.0082472     0.99872,0.081726  -0.0020542  -0.0053139,0.8645568      1.713913      174.5426,1.8027     -2.4102    -0.61475,24.80699      121.0247      55.32778,-7.20703      9.39063      55.3278,-64,6,
21:01:30:83,0,0.048789   -0.016159   0.0043238     0.99867,0.37695     0.28516   0.0077858,0.4046866      1.873776      174.4128,0.20349     -1.4629     -1.4268,24.80701      121.0247      55.33803,-7.10156      9.23438       55.338,-71,3.5,
21:01:31:14,0,0.049816   -0.014328 -0.00051133     0.99866,-0.28003     0.09314    0.011444,-0.1403662      1.637003      174.2865,2.1855    0.081238     0.93018,24.80703      121.0246      55.31363,-6.92578      8.96875      55.3136,-68,5,
21:01:31:45,0,0.053402   -0.015675  -0.0030789     0.99845,0.23401     0.61279   -0.021622,-0.4484098      1.774874        173.87,1.5654     0.44434      -3.252,24.80704      121.0246      55.28579,-6.88672      8.82031      55.2858,-64,5.5,
21:01:31:76,0,0.050035   -0.020211   -0.017532     0.99839,-0.95654     0.19348    0.083496,-2.12374       2.21232      174.2209,-2.416      1.5244    -0.87842,24.80706      121.0246      55.29996,-6.70703      8.53125         55.3,-75,-0.25,
21:01:32:07,0,0.049168   -0.023267  -0.0049747     0.99851,-0.1109     0.22546    0.060059,-0.7010626      2.635114      174.3458,0.29712    -0.94189     0.35889,24.80708      121.0246      55.26616,-6.53125      8.35156      55.2662,-70,3.25,
21:01:32:39,0,0.052048   -0.021657   0.0040082      0.9984,-0.050049    -0.24841   0.0015984,0.3297166      2.502413      174.0387,-0.27417     -3.7754   -0.029633,24.8071      121.0245      55.21486,-6.31641      8.11719      55.2149,-68,5,
21:01:32:70,0,0.047998   -0.016275   0.0026977     0.99871,0.28564     0.22009    0.036743,0.2193391       1.87779      174.5005,-0.32715      -1.043    -0.29419,24.80712      121.0245      55.22077,-6.21875      7.97656      55.2208,-68,4,
21:01:33:01,0,0.052301  -0.0047863   0.0020714     0.99862,-0.23914     0.12732   0.0038452,0.2083561     0.5601399       174.005,1.9229       1.251     -0.1059,24.80713      121.0245      55.15246,-6.07031      7.71875      55.1525,-63,6,
21:01:33:32,0,0.059652 -0.00089276    0.011029     0.99816,-0.049591    0.097046   -0.026611,1.255513     0.1775052      173.1618,3.1328    -0.49683    -0.38281,24.80715      121.0244      55.10397,-5.81641      7.50781       55.104,-61,6.5,
21:01:33:63,0,0.066492   -0.002787     0.01206     0.99771,0.055725     0.15698    -0.01918,1.357767     0.4105294      172.3793,3.8242    0.020859     -1.4209,24.80717      121.0244      55.03125,-5.54688      7.30859      55.0312,-59,6,
21:01:33:94,0,0.074662   0.0045884   0.0038977     0.99719,-0.073914     0.18921   -0.034302,0.4846729    -0.4909706      171.4342,-0.43677    -0.17346     -0.3501,24.80718      121.0244       55.0008,-5.39844      7.16016      55.0008,-62,5.5,
21:01:34:25,0,0.084393   0.0038177     0.01828     0.99626,-0.00079536   -0.014542   -0.046967,2.12433    -0.2590644      170.3113,-0.0035477     -1.9648     0.85352,24.8072      121.0244      55.02074,-5.10156      6.98438      55.0207,-67,4.75,
21:01:34:56,0,0.091169    0.010754    0.018175     0.99561,-0.015213     0.10895   -0.035095,2.186798     -1.037111      169.5161,0.46069    -0.67334     0.15283,24.80721      121.0244      55.00077,-4.83984      6.80078      55.0008,-55,5.75,
21:01:34:87,0,0.10664    0.013223      0.0269     0.99385,0.094055   -0.028427      -0.125,3.227461     -1.177291      167.7182,0.34814     -4.2461      -4.375,24.80723      121.0243      54.95613,-4.52344      6.57031      54.9561,-60,6.25,
21:01:35:19,0,0.11764    0.015041    0.024607     0.99264,0.15259    0.048035   -0.064087,3.003946     -1.379283      166.4463,0.62646     -1.6797     0.76563,24.80724      121.0243      54.91826,-4.18359      6.46875      54.9183,-54,6,
21:01:35:50,0,0.13219    0.022071    0.020389     0.99077,-0.32251    0.047394   -0.086975,2.652065     -2.197528      164.7503,-0.32031     0.53906    -0.99561,24.80726      121.0243       54.9098,-3.86328      6.32422      54.9098,-53,6,
21:01:35:80,0,0.15128    0.020878    0.024992     0.98796,-0.021011    0.031982   -0.088623,3.194788     -1.930763      162.5352,-0.40698     -3.0586      1.5225,24.80727      121.0243       54.8357,-3.53125      6.09375      54.8357,-53,6.25,
21:01:36:12,0,0.16822    0.019305   0.0086596     0.98552,0.28101   -0.039093    -0.15845,1.351044     -2.013643      160.6032,1.9209      1.3486     0.27173,24.80729      121.0243      54.79063,-3.20117      5.95313      54.7906,-56,6,
21:01:36:42,0,0.18086    0.012272    0.022764     0.98317,0.068909    -0.25952   -0.081787,2.820538    -0.9108576      159.1313,-0.40625     -2.0879      3.9609,24.8073      121.0243      54.70684,-2.84766      5.66016      54.7068,-52,6,
21:01:36:74,0,0.19081    0.015007    0.016086     0.98138,-0.34131    -0.15027     -0.1015,2.138246     -1.336076      157.9695,-1.791     -1.4385      3.4492,24.80732      121.0243      54.70493,-2.61133      5.42188      54.7049,-55,5.75,
21:01:37:05,0,0.20154     0.01125    0.019748     0.97922,0.20862     0.29639   -0.020248,2.476716    -0.8063331      156.7222,0.39551     -0.9502    -0.36328,24.80733      121.0242      54.65976,-2.375      5.26563      54.6598,-57,6.5,
21:01:37:36,0,0.21233    0.012404    0.015378       0.977,-0.097839   -0.022247   -0.074707,2.024218     -1.014607      155.4597,3.082     0.25659      5.0039,24.80734      121.0242      54.59711,-2.06445      4.80469      54.5971,-61,6.25,
21:01:37:67,0,0.22889    0.018731    0.027923     0.97287,1.0684    0.019394    -0.14685,3.607646     -1.355975      153.4786,2.0781     -1.4951     -2.5254,24.80735      121.0242      54.57029,-1.74121      4.73047      54.5703,-61,6,
21:01:37:98,0,0.24601    0.018893   0.0063018     0.96906,-0.15173    -0.18933    -0.12634,1.233198     -1.920753      151.4908,1.3916     -1.1016     -0.7251,24.80737      121.0242      54.61845,-1.5166      4.25391      54.6184,-58,6.75,
21:01:38:29,0,0.26884    0.018048   0.0083972     0.96298,0.21252    -0.24402    -0.21985,1.483485      -1.73319      148.7802,2.1152    -0.91504      2.2051,24.80738      121.0242       54.6001,-1.2793      4.05469      54.6001,-55,6.25,
21:01:38:60,0,0.29303   0.0084684   0.0059559     0.95605,-0.15869    -0.22681    -0.14587,0.9369783    -0.7277757      145.9131,-1.1875      0.5459      3.6758,24.80739      121.0242      54.59991,-1.12207      4.01563      54.5999,-62,5.75,
21:01:38:91,0,0.30216   -0.009175    0.015401     0.95309,-0.18042    0.052917    -0.01857,1.36493      1.535484      144.8376,-1.6953     -4.4492     -0.5293,24.8074      121.0242      54.59402,-1.02637      3.63672       54.594,-59,6.5,
21:01:39:23,0,0.30814   -0.023252    0.011179     0.95099,0.10052     0.15491   -0.030777,0.3977469      2.929912      144.1038,1.3447   -0.093811   -0.063782,24.80741      121.0242      54.62569,-0.89502       3.2207      54.6257,-64,5.5,
21:01:39:53,0,0.30598   -0.039699  -0.0064704     0.95119,-0.27661    0.065308    0.062195,-2.103071      4.103702      144.2602,-0.32739    -0.85498    -0.71533,24.80742      121.0242       54.6428,-0.902344      2.69336      54.6428,-61,6.5,
21:01:39:85,0,0.28727   -0.061072  -0.0054685     0.95589,-0.28857    0.061676     0.24573,-2.627306       6.52364      146.3966,-0.84619     -1.7852    -0.53174,24.80742      121.0242      54.63342,-0.942871         2.25      54.6334,-65,5,
21:01:40:16,0,0.23595   -0.069734  -0.0066978     0.96924,0.072327   0.0014334     0.44946,-2.653482      7.586143      152.4608,0.7876      1.1211    -0.47876,24.80743      121.0242      54.63725,-0.912109      1.95898      54.6373,-60,6,
21:01:40:47,0,0.15646     -0.0645  -0.0080196     0.98554,0.17322    0.037964     0.52246,-2.078767      7.159127      161.8285,-0.60938     -3.6523    -0.53564,24.80743      121.0242      54.65496,-1.01172      1.68066       54.655,-61,6,
21:01:40:78,0,0.08074   -0.062083   -0.014451      0.9947,-0.13525    -0.18347     0.52979,-2.238622      6.959851      170.5827,-1.3574     0.47217      0.7876,24.80744      121.0242      54.63907,-1.0166       1.2666      54.6391,-62,6,
21:01:41:09,0,-0.010468   -0.055075   -0.014372     0.99832,-0.15186    0.026443     0.58008,-1.587983      6.330624     -178.8863,0.31152    -0.24194     0.56885,24.80744      121.0242      54.61561,-1.12891       1.0166      54.6156,-64,5.75,
21:01:41:40,0,-0.11063   -0.042558   -0.013176     0.99286,0.047821    -0.15466     0.70557,-0.9632633       5.01539     -167.3266,0.7334     -0.9126    -0.17444,24.80744      121.0242      54.61006,-1.05762     0.948242      54.6101,-59,6,
21:01:41:71,0,-0.2084   -0.023449  0.00045058     0.97776,0.059326    -0.20239     0.61084,0.6111253      2.617484      -155.922,-1.04      1.0244    0.080383,24.80744      121.0242      54.65308,-0.990234     0.758789      54.6531,-65,5.25,
21:01:42:03,0,-0.29074  -0.0021028    0.024193     0.95649,-0.061737    -0.19165     0.43677,2.72296    -0.5755787     -146.1983,1.3945     -1.3408     0.41455,24.80745      121.0242      54.64688,-0.789551     0.552246      54.6469,-64,6,
21:01:42:33,0,-0.32552   0.0024282    0.039511     0.94471,-0.0039368    0.018311    0.099792,4.192327     -1.736942     -142.0387,1.7803    -0.23254     0.91357,24.80745      121.0242      54.64575,-0.437012     0.245728      54.6458,-65,5.5,
21:01:42:65,0,-0.32004 -0.00066478    0.026029     0.94705,-0.014305     0.14905    -0.11127,2.8507    -0.8824912     -142.6781,0.57373     -1.0713    0.070862,24.80745      121.0242      54.65075,-0.172119    0.0327759      54.6507,-63,6.25,
21:01:42:96,0,-0.30558   -0.010033   0.0044632      0.9521,-0.091003    0.083313   -0.075317,0.8384038     0.9383595     -144.4049,-0.15076     0.24121      0.6377,24.80745      121.0242      54.71786,-0.00997162    0.0353394      54.7179,-62,6.25,
21:01:43:27,0,-0.30217    -0.01913  -0.0070464     0.95304,-0.10559     0.11523   0.0065994,-0.1072293      2.333803     -144.8185,-0.11609     -1.0527   -0.049805,24.80745      121.0242      54.70913,0.121094   -0.0288391      54.7091,-62,6.25,
21:01:43:58,0,-0.30661    -0.02872   -0.019855      0.9512,0.16821    0.077271    0.062347,-1.157782      3.830944     -144.3065,0.45752    -0.24792     0.50195,24.80745      121.0242      54.72435,0.216431    0.0897217      54.7243,-62,5.75,
21:01:43:89,0,-0.31412   -0.021086   -0.017286     0.94899,0.10272   -0.049194    0.067993,-1.12232      2.916473     -143.3986,0.47363    -0.42651    -0.64258,24.80745      121.0242       54.6921,0.264404     0.198242      54.6921,-63,5.5,
21:01:44:20,0,-0.32075    -0.01351  -0.0057889     0.94705,-0.093201   -0.025589    0.050964,-0.1317561      1.679125     -142.5818,-0.47168    0.093201     0.55566,24.80745      121.0242      54.72281,0.270508     0.171753      54.7228,-67,5.25,
21:01:44:51,0,-0.32711   -0.011282  -0.0025161     0.94492,-0.053375   -0.024414    0.039368,0.1504815      1.316009     -141.8093,0.17371    -0.41553     0.16528,24.80745      121.0242      54.71667,0.275879     0.117004      54.7167,-68,5.5,
21:01:44:82,0,-0.33504   -0.018501   -0.016721     0.94187,-0.16724     0.17175    0.050842,-1.095663      2.639693     -140.8621,-0.22131   -0.047119     0.39917,24.80745      121.0242      54.69204,0.282471  0.000480652       54.692,-64,5.5,
21:01:45:14,0,-0.34337   -0.025995   -0.030091     0.93836,-0.19678   0.0018625     0.03183,-2.218731      3.982393     -139.8794,0.072327     0.71045     0.46411,24.80745      121.0242      54.66872,0.36499     0.110901      54.6687,-63,6,
21:01:45:44,0,-0.34954   -0.025825   -0.024931     0.93623,0.24817    0.018753    0.031128,-1.644122        3.7719     -139.1078,0.94336     0.45483    -0.44043,24.80745      121.0242      54.71755,0.338623     0.249023      54.7176,-65,5,
21:01:45:75,0,-0.35512   -0.020175   -0.022994     0.93432,0.064331  -0.0050888    0.032837,-1.643572      3.097226      -138.423,-0.42358      0.9541      1.7256,24.80745      121.0242       54.7152,0.343994     0.223389      54.7152,-68,5.25,
21:01:46:07,0,-0.35881   -0.016471    -0.01726      0.9331,-0.022781   -0.072144    0.014412,-1.169427      2.471634     -137.9581,-0.46216     0.42261    -0.12903,24.80745      121.0242       54.7097,0.31958     0.263916      54.7097,-64,5.75,
21:01:46:38,0,-0.36018   -0.014358   -0.015022     0.93265,0.085815    0.011559  -0.0051651,-1.013635      2.155073     -137.7867,-0.51074    0.051849      0.8374,24.80745      121.0242      54.70467,0.204956     0.228394      54.7047,-63,5.5,
21:01:46:69,0,-0.36042   -0.015508   -0.016177     0.93252,-0.047821    -0.01857  -0.0045433,-1.089166      2.325962      -137.759,-0.054474    -0.15674    -0.76172,24.80745      121.0242       54.7115,0.223633     0.262695      54.7115,-62,6,
21:01:47:00,0,-0.3605   -0.014529   -0.012832     0.93256,0.027359   0.0047417   0.0082932,-0.771664      2.083141     -137.7442,0.40967    -0.28052   -0.069519,24.80746      121.0242      54.77288,0.231689     0.246216      54.7729,-63,5.75,
21:01:47:31,0,-0.36042   -0.015576    -0.01445     0.93255,0.003212    0.010391  -0.0032749,-0.901602       2.26187     -137.7554,-0.39722     0.40796     -1.1016,24.80746      121.0242      54.76335,0.250488     0.225586      54.7633,-65,5.25,
21:01:47:62,0,-0.36056   -0.017601   -0.017305     0.93241,0.010017   0.0038261  -0.0011368,-1.12299      2.596447     -137.7433,0.36841     0.36963    -0.39746,24.80746      121.0242      54.77497,0.264404     0.240356       54.775,-66,5.75,
21:01:47:93,0,-0.3615    -0.01847   -0.019895     0.93198,0.0098801   -0.013756    0.042114,-1.361297      2.797825     -137.6318,0.34204     0.50586    -0.36597,24.80746      121.0242      54.77174,0.29834     0.256348      54.7717,-65,5.25,
21:01:48:24,0,-0.37055   -0.013528   -0.010112     0.92866,0.046783   -0.081177    0.063538,-0.5019818      1.869337     -136.5029,0.24768    -0.83691     0.61523,24.80746      121.0242      54.83227,0.30835     0.306641      54.8323,-65,5.25,
21:01:48:55,0,-0.37353   -0.010582  -0.0050126     0.92755,0.034424   -0.018784  -0.0057678,-0.0798485      1.339462     -136.1313,0.0017614     0.77441     0.44946,24.80746      121.0242      54.83261,0.316895     0.251465      54.8326,-64,5.75,
21:01:48:87,0,-0.3736  -0.0087052  -0.0023332     0.92754,-0.0065079  -0.0056801    0.011581,0.1247072      1.025206      -136.121,-0.31274   -0.095703    -0.16516,24.80746      121.0242      54.81487,0.318115     0.239258      54.8149,-64,5.5,
21:01:49:17,0,-0.37393   -0.007745 -0.00066985     0.92743,0.028641    -0.03125   0.0055847,0.2607062     0.8518395     -136.0808,0.46753     0.58545     -0.7041,24.80746      121.0242       54.8366,0.33374     0.243896      54.8366,-65,5.25,
21:01:49:49,0,-0.37399  -0.0089994 -0.00049942     0.92739,-0.0014648    0.072083  0.00052261,0.3326531     0.9778266     -136.0718,0.54883     0.36133     0.28394,24.80746      121.0242      54.90271,0.326904     0.199097      54.9027,-64,5.5,
21:01:49:80,0,-0.37427   -0.011452  -0.0051751     0.92724,0.020096    0.036926    0.011543,-0.05875977      1.438868     -136.0389,0.35474     0.52881      2.1602,24.80746      121.0242      54.89798,0.345215     0.208374       54.898,-65,6.75,
21:01:50:11,0,-0.37417   -0.012379  -0.0077001     0.92725,0.018646   -0.027649  0.00043488,-0.2875213       1.64571     -136.0532,-0.37036     0.47583     0.32593,24.80746      121.0242      54.89116,0.349365     0.217285      54.8912,-64,5.75,
21:01:50:42,0,-0.37409   -0.012422  -0.0083309     0.92727,0.030396  -0.0070114  -0.0061836,-0.3528709      1.677299     -136.0641,-0.74072     0.29883     0.41138,24.80746      121.0242      54.88623,0.363037      0.23877      54.8862,-65,5,
21:01:50:73,0,-0.37473   -0.011731  -0.0047142     0.92705,0.090149    0.053406    0.003828,0.002937458      1.448764     -135.9808,0.36279    -0.48804    -0.50928,24.80746      121.0242      54.94415,0.360352     0.239624      54.9442,-67,5.5,
21:01:51:04,0,-0.37457   -0.013274  -0.0063452     0.92708,-0.0018559    0.018417  -0.0034733,-0.1043774      1.682788     -136.0012,0.08783      1.5244     0.99365,24.80746      121.0242      54.96043,0.37085     0.196045      54.9604,-67,5.25,
21:01:51:35,0,-0.37486   -0.014659    -0.01016     0.92691,0.018127  -1.508e-05    0.005394,-0.4496878      1.993859     -135.9692,1.7627     0.42578     -1.1055,24.80746      121.0242      54.94692,0.384521     0.219971      54.9469,-68,5,
21:01:51:66,0,-0.37499   -0.014409    -0.01022     0.92686,0.013664     0.02478    0.013374,-0.466633      1.969936     -135.9529,0.89648     0.53076    0.044464,24.80746      121.0242      54.95317,0.379639     0.223633      54.9532,-66,6,
21:01:51:98,0,-0.37538   -0.014081  -0.0084788     0.92672,-0.0029469   0.0029564  -0.0030842,-0.294835      1.860425     -135.9024,0.12659     -0.1449       2.084,24.80746      121.0242      54.98627,0.37207     0.216553      54.9863,-66,6.5,
21:01:52:29,0,-0.37524   -0.013192  -0.0075072      0.9268,0.039886  -0.0077629 -0.00016677,-0.2301528      1.724091     -135.9193,-0.8457    0.091919     0.51563,24.80746      121.0242      54.98203,0.375732     0.211548       54.982,-64,5.5,
21:01:52:60,0,-0.3754   -0.013411  -0.0070437     0.92674,0.029419    -0.00914   0.0079727,-0.1711783       1.72747     -135.8993,-0.15894     0.53467     0.46387,24.80746      121.0242      55.00382,0.387939     0.216797      55.0038,-64,5.5,
21:01:52:91,0,-0.37564   -0.012628  -0.0064595     0.92666,-0.013428    0.006031  -0.0011835,-0.1424031      1.619191     -135.8701,1.6592    -0.62793     -1.5166,24.80746      121.0242      55.00106,0.394531     0.204956      55.0011,-65,5,
21:01:53:22,0,-0.37612   -0.013438  -0.0062075     0.92645,-0.011032    0.044647   0.0027199,-0.07984126      1.694469      -135.809,0.22839      0.3728    -0.89355,24.80746      121.0242      55.05301,0.355225      0.18335       55.053,-65,6,
21:01:53:53,0,-0.28224   -0.013826  -0.0063179      0.9265,-0.0044289   -0.002882   0.0023403,-0.2384317      1.782476     -146.1191,-0.025879   -0.083313    -0.37354,25.80648      121.0515      55.05339,0.427002      0.18103      55.0534,-64,1.75,
21:01:53:84,0,-0.3761   -0.013254  -0.0055549     0.92647,-0.034393   -0.026184  -0.0081558,-0.01854552      1.646704      -135.811,-1.1963     0.12708     0.65723,24.80746      121.0242      55.03398,0.362061     0.202026       55.034,-64,5.75,
21:01:54:15,0,-0.37631   -0.011605  -0.0041132     0.92641,0.055115   -0.019531  -0.0015621,0.06381495      1.409537     -135.7851,0.17773     0.21558   -0.015251,24.80746      121.0242      55.03389,0.373047     0.201172      55.0339,-63,5.75,
21:01:54:46,0,-0.37665   -0.011382  -0.0041567     0.92628,0.00093937   -0.033508   0.0033588,0.05005184      1.387643     -135.7434,-0.90674     0.11029     0.15405,24.80746      121.0242      55.07109,0.349365     0.178467      55.0711,-64,5.75,
21:01:54:78,0,-0.37676   -0.011715  -0.0040362     0.92623,0.00078917  0.00014269    0.012161,0.07740428      1.417803      -135.729,0.81592   -0.049103     0.31006,24.80746      121.0242         55.05,0.358398     0.160278        55.05,-65,5.5,
21:01:55:08,0,-0.37696   -0.012698  -0.0042956     0.92613,-0.0027695    0.010666  0.00014222,0.09264933      1.533297      -135.703,0.19885    -0.76172    -0.98682,24.80746      121.0242      55.03718,0.359619     0.151611      55.0372,-65,5.5,
21:01:55:39,0,-0.37697   -0.012861  -0.0049807     0.92612,0.015717   -0.021759    0.010178,0.02699352      1.580244     -135.7031,-0.047516      0.3186    -0.14148,24.80746      121.0242      55.03828,0.352783     0.158936      55.0383,-66,5.25,
21:01:55:71,0,-0.37736   -0.013278  -0.0055752     0.92596,0.030655    0.038879   0.0079422,-0.01740739       1.65018      -135.655,0.60693    -0.55225    -0.88477,24.80746      121.0242      55.09692,0.34375     0.141479      55.0969,-67,5.5,
21:01:56:01,0,-0.37746   -0.012997  -0.0049572     0.92592,-0.037964   -0.019653   0.0048714,0.03621105      1.593647     -135.6419,-1.0645    -0.46631     0.50488,24.80746      121.0242       55.1278,0.327637     0.150146      55.1278,-64,6,
21:01:56:33,0,-0.37752   -0.012555  -0.0038876     0.92591,-0.051453  -0.0034809  -0.0026741,0.1306799      1.500401     -135.6338,0.9209    -0.71924    -0.90088,24.80746      121.0242      55.14312,0.338623     0.141602      55.1431,-64,5.75,
21:01:56:64,0,-0.37757   -0.012658  -0.0038586     0.92589,0.0071335    0.015747    0.023331,0.1383144      1.510091     -135.6275,0.91016   -0.010689     0.28174,24.80746      121.0242      55.15387,0.32666     0.134277      55.1539,-66,5.25,
21:01:56:95,0,-0.37797   -0.013277   -0.004198     0.92571,0.02832  -0.0093918    0.014282,0.1297603      1.590406     -135.5782,-0.038483     0.80908     0.46411,24.80746      121.0242      55.21869,0.299072     0.125366      55.2187,-65,5.75,
21:01:57:26,0,-0.3781    -0.01272  -0.0037985     0.92567,-0.022629   -0.025635  4.0591e-05,0.1482508      1.513999     -135.5618,-1.1465     0.25439    -0.23254,24.80746      121.0242      55.22393,0.291992     0.126709      55.2239,-66,5.25,
21:01:57:57,0,-0.37811   -0.012388   -0.003686     0.92567,0.013382  -0.0074081  -0.0079956,0.1458336      1.473965      -135.561,-0.81494     0.17664     0.51514,24.80746      121.0242      55.21484,0.296143     0.118652      55.2148,-65,5.25,
21:01:57:88,0,-0.3782   -0.013145  -0.0039847     0.92562,-0.0096817   0.0048332 -0.00037265,0.147076      1.567134     -135.5492,-0.66406     0.34546    -0.88818,24.80746      121.0242      55.22002,0.29834     0.114746        55.22,-66,5.5,
21:01:58:19,0,-0.37838   -0.012878  -0.0043228     0.92555,0.038574   -0.019714   0.0084457,0.09994388      1.553462     -135.5272,1.2764     0.17944     -1.0625,24.80746      121.0242      55.21824,0.294434     0.116455      55.2182,-66,5.25,
21:01:58:50,0,-0.37863   -0.013113  -0.0038579     0.92545,0.011833    0.019699  0.00037217,0.1598749      1.558188     -135.4961,-0.1416    -0.76465     -1.1787,24.80746      121.0242      55.26822,0.279541     0.102173      55.2682,-64,6,
21:01:58:82,0,-0.3786   -0.013059  -0.0032029     0.92546,-0.041595   -0.014061   0.0044556,0.2269873      1.524094     -135.4987,-0.84766    -0.27295      1.0498,24.80746      121.0242      55.25854,0.269531     0.109741      55.2585,-65,5.25,
21:01:59:12,0,-0.37856   -0.012934  -0.0029308     0.92548,0.028    0.029083    -0.00457,0.2503554      1.499042     -135.5037,0.089172     0.51953    -0.60352,24.80746      121.0242      55.27227,0.271973     0.107788      55.2723,-65,5.75,
21:01:59:43,0,-0.37865   -0.013199  -0.0031512     0.92544,0.024445     0.01532   0.0079269,0.2386115      1.536645     -135.4925,0.61426   -0.059601      2.1055,24.80746      121.0242      55.27611,0.271729     0.101257      55.2761,-65,5.75,
21:01:59:75,0,-0.37875   -0.013061  -0.0033246      0.9254,-0.019562  -0.0083313   0.0034237,0.2143849      1.529476     -135.4803,1.5176    -0.50391    -0.72803,24.80746      121.0242        55.301,0.26123    0.0893555       55.301,-64,5.75,
21:02:00:06,0,-0.37873   -0.013177  -0.0032568     0.92541,0.010414    0.027054    0.011185,0.2265683      1.538843     -135.4832,0.88281    -0.21399    -0.16943,24.80746      121.0242      55.29617,0.259766    0.0952759      55.2962,-64,5.5,
21:02:00:37,0,-0.37881   -0.013025  -0.0030738     0.92538,0.044373   -0.026489   0.0089188,0.2395435      1.514835     -135.4729,0.75342    0.038208    -0.25049,24.80746      121.0242      55.29504,0.252441    0.0969238       55.295,-64,5.75,
21:02:00:68,0,-0.37882   -0.013486  -0.0032211     0.92537,-0.038025    0.030533  -0.0070496,0.2439751      1.570116     -135.4709,0.00064087    -0.49316     -1.2158,24.80746      121.0242       55.2949,0.242554     0.078125      55.2949,-62,6,
21:02:00:99,0,-0.37881   -0.014504  -0.0047398     0.92535,-0.025055   0.0050316   0.0021477,0.1270661      1.744009     -135.4729,-0.36353    -0.23206    0.018188,24.80746      121.0242       55.3297,0.220337    0.0686646      55.3297,-66,5.25,
21:02:01:30,0,-0.37894   -0.014875  -0.0048973     0.92529,0.051849   0.0020599    0.010826,0.1267274      1.790175     -135.4568,0.093811      0.7207      1.6855,24.80746      121.0242      55.32146,0.22168    0.0849609      55.3215,-64,5.25,
21:02:01:61,0,-0.37899   -0.014265  -0.0045153     0.92528,-0.018509   -0.013054   0.0074425,0.1408101       1.70883     -135.4505,1.4766    -0.39771     -1.2207,24.80746      121.0242      55.31442,0.217285    0.0755005      55.3144,-64,6,
21:02:01:92,0,-0.37895   -0.013808  -0.0039487     0.92531,0.0041008   0.0018969   0.0068092,0.1809734      1.635736     -135.4552,0.35742     0.33252    0.054413,24.80746      121.0242      55.30521,0.209473    0.0849609      55.3052,-66,5.75,
21:02:02:23,0,-0.37911   -0.013882  -0.0031998     0.92524,-0.022461   0.0038376   0.0010557,0.2639212      1.611044     -135.4339,0.055817     -0.5249      1.5332,24.80746      121.0242      55.33062,0.191772    0.0727539      55.3306,-62,6,
21:02:02:55,0,-0.37922   -0.013014  -0.0016869     0.92521,0.012299    0.013245   0.0080948,0.3868026      1.453207     -135.4199,0.73535     -1.0547     -1.0732,24.80746      121.0242      55.31543,0.202637    0.0698242      55.3154,-65,5.5,
21:02:02:85,0,-0.37913   -0.012956  -0.0020088     0.92525,0.030807  -0.0075951  -0.0047112,0.3500187      1.461115     -135.4316,0.224     0.84814      -1.166,24.80746      121.0242      55.31287,0.19043    0.0656128      55.3129,-64,5.5,
21:02:03:17,0,-0.37897    -0.01345  -0.0029347     0.92531,0.027023   -0.016754    0.004673,0.2730273      1.553785     -135.4518,0.074585    0.054779     0.86816,24.80746      121.0242      55.31089,0.183838    0.0631714      55.3109,-64,5.75,
21:02:03:48,0,-0.37907   -0.013945  -0.0027349     0.92526,0.0082779  -0.0024395   0.0005312,0.3158726      1.597504     -135.4391,-0.35596     0.68945   -0.077209,24.80746      121.0242      55.34297,0.166748    0.0628052       55.343,-65,5.5,
21:02:03:79,0,-0.37903   -0.013435  -0.0026982     0.92528,0.0017099 -0.00030684  -0.0070496,0.2975266      1.541854     -135.4449,1.2471    -0.30566     -1.3389,24.80746      121.0242      55.33908,0.168091    0.0605469      55.3391,-65,5.25,
21:02:04:10,0,-0.37897   -0.013507  -0.0023559     0.92531,0.017075    0.032501  -0.0029335,0.336887      1.534664     -135.4512,0.071472    -0.85986     -1.1914,24.80746      121.0242      55.33907,0.168335    0.0531921      55.3391,-66,5.25,
21:02:04:41,0,-0.37893   -0.013507  -0.0020851     0.92532,-0.044525   0.0035629    0.001112,0.3655347      1.522898     -135.4559,-0.67188    -0.44141      1.0264,24.80746      121.0242      55.33214,0.154419    0.0541382      55.3321,-67,5.5,
21:02:04:72,0,-0.37893   -0.013587  -0.0027257     0.92532,-0.019867   0.0086746   0.0038414,0.3010727      1.559224     -135.4562,0.16724     0.53125     0.13159,24.80746      121.0242      55.34402,0.137695    0.0422058       55.344,-70,4.25,
21:02:05:03,0,-0.37888   -0.014018  -0.0030109     0.92533,-0.034332  -0.0062332   0.0047913,0.2894687      1.617322     -135.4619,-0.98047    -0.51855     0.62354,24.80746      121.0242      55.33522,0.126709    0.0447998      55.3352,-71,3,
21:02:05:34,0,-0.37882   -0.013865  -0.0028421     0.92536,0.013992    0.019379   0.0091019,0.3006168      1.593811     -135.4701,0.68555     0.43799    0.098572,24.80746      121.0242       55.3145,0.13208    0.0465088      55.3145,-70,3.25,
21:02:05:66,0,-0.37891   -0.013633  -0.0028074     0.92533,0.036987   -0.029953   0.0097351,0.2943814       1.56771     -135.4593,0.81836     0.17017     -0.7583,24.80746      121.0242      55.30708,0.13147    0.0505676      55.3071,-64,5.5,
21:02:05:96,0,-0.37891   -0.013492  -0.0018435     0.92533,-0.038574   0.0074272  -0.0059586,0.390493      1.510859     -135.4576,-0.80176     0.45728     -1.2852,24.80746      121.0242      55.33814,0.120605    0.0443115      55.3381,-66,5,
21:02:06:28,0,-0.37881   -0.013006  -0.0016949     0.92538,-0.047546   0.0059242 -0.00038695,0.384988      1.452948     -135.4711,0.61475    -0.95752    -0.78809,24.80746      121.0242      55.33407,0.12207    0.0368958      55.3341,-66,5.25,
21:02:06:59,0,-0.37873   -0.013565  -0.0016606     0.92541,-0.035675  -0.0088806    0.015732,0.4127515      1.510709     -135.4801,0.11255    -0.50439    -0.74902,24.80746      121.0242      55.31578,0.118774    0.0358276      55.3158,-66,5.25,
21:02:06:90,0,-0.37858   -0.013641   -0.001948     0.92547,-0.049042  0.00028396   0.0025425,0.3853203      1.531291     -135.4985,0.85498    -0.60352    -0.25293,24.80746      121.0242       55.2842,0.115601    0.0348816      55.2842,-64,5.75,
21:02:07:21,0,-0.37859   -0.014155  -0.0023141     0.92545,-0.01973    0.001565   0.0033951,0.3688162      1.601683     -135.4972,-0.35425     0.99854  -0.0048218,24.80746      121.0242      55.30137,0.0970459    0.0358582      55.3014,-68,4.75,
21:02:07:52,0,-0.37846   -0.013989  -0.0030086     0.92551,-0.04657     0.02533   -0.022171,0.2877336      1.614349     -135.5143,-0.1593    0.056427     -1.2568,24.80746      121.0242      55.29556,0.0935059    0.0350952      55.2956,-67,5,
21:02:07:83,0,-0.37842   -0.014404  -0.0028334     0.92552,-0.032471 -0.00030303  0.00054169,0.32426      1.650764     -135.5182,-0.49194     0.34326     -1.1396,24.80746      121.0242      55.28467,0.0911255    0.0364075      55.2847,-69,4.5,
