UTC(1),UTC(2),UTC(3),UTC(4),Pack_count(1),Pack_count(2),q0(1),q0(2),q0(3),q0(4),q1(1),q1(2),q1(3),q1(4),q2(1),q2(2),q2(3),q2(4),q3(1),q3(2),q3(3),q3(4),RollRate(1),RollRate(2),PitchRate(1),PitchRate(2),YawRate(1),YawRate(2),FreeAccX(1),FreeAccX(2),FreeAccY(1),FreeAccY(2),FreeAccZ(1),FreeAccZ(2),Lat(1),Lat(2),Lat(3),Lat(4),Long(1),Long(2),Long(3),Long(4),Height(1),Height(2),Height(3),Height(4),VelX(1),VelX(2),VelY(1),VelY(2),VelZ(1),VelZ(2),LoRaRSSI,LoRaSNR,
22,2,13,15,0,228,191,93,60,91,186,101,161,192,185,147,6,0,63,0,206,15,24,39,31,156,155,57,12,13,161,152,160,165,65,177,102,71,66,241,200,254,65,251,105,97,154,180,20,127,17,162,-97,3.00,
22,2,13,35,0,229,191,93,61,0,186,96,245,192,185,140,38,0,63,0,204,243,14,161,31,156,150,224,158,210,165,86,162,22,65,177,102,71,66,241,200,254,65,251,28,7,153,86,19,75,157,225,-97,2.75,
22,2,13,54,0,230,191,93,62,201,186,101,12,64,185,157,14,0,63,0,201,227,13,57,32,173,156,125,154,239,32,175,23,177,65,177,102,71,66,241,200,254,65,251,54,34,149,115,9,233,156,236,-98,3.00,
22,2,13,74,0,231,191,93,62,176,186,92,224,0,185,151,253,0,63,0,202,18,25,193,28,3,20,22,169,16,36,204,34,163,65,177,102,71,66,241,200,254,65,251,66,177,156,86,10,223,157,182,-97,3.00,
22,2,13,93,0,232,191,93,57,8,186,87,44,64,185,138,212,0,63,0,211,197,23,55,31,101,157,139,28,60,168,74,163,158,65,177,102,71,66,241,200,254,65,251,89,42,153,20,20,72,157,5,-97,2.50,
22,2,14,13,0,233,191,93,55,75,186,90,216,0,185,148,68,0,63,0,214,192,25,7,27,240,23,100,33,1,165,253,163,112,65,177,102,71,66,241,200,254,65,251,98,83,150,195,22,251,152,83,-97,2.75,
22,2,14,33,0,234,191,93,53,196,186,85,7,128,185,180,53,0,63,0,217,98,22,159,31,110,157,90,167,71,141,108,12,188,65,177,102,71,66,241,200,254,65,251,25,119,153,108,21,28,160,96,-97,2.75,
22,2,14,52,0,235,191,93,60,139,186,80,107,192,185,167,4,0,63,0,205,193,27,68,27,19,132,168,169,121,25,6,32,70,65,177,102,71,66,241,200,254,65,251,48,130,155,232,14,130,153,213,-97,3.00,
22,2,14,72,0,236,191,93,52,211,186,88,34,128,185,143,158,0,63,0,218,254,28,187,28,40,153,243,158,93,160,224,13,148,65,177,102,71,66,241,200,254,65,251,69,106,153,106,16,129,154,194,-97,2.75,
22,2,14,91,0,237,191,93,52,221,186,90,252,128,185,137,129,0,63,0,218,240,29,173,26,2,154,48,166,188,26,48,22,245,65,177,102,71,66,241,200,254,65,251,85,142,154,51,21,157,154,224,-97,2.75,
22,2,15,11,0,238,191,93,53,49,186,83,4,192,185,122,98,0,63,0,218,94,27,226,29,124,153,194,169,91,167,12,157,171,65,177,102,71,66,241,200,254,65,251,21,208,156,101,12,77,161,84,-97,2.50,
22,2,15,31,0,239,191,93,48,204,186,77,84,0,185,181,41,0,63,0,225,232,24,227,27,173,22,93,169,210,36,47,34,178,65,177,102,71,66,241,200,254,65,251,42,38,154,199,20,67,161,16,-97,2.50,
22,2,15,50,0,240,191,93,49,144,186,72,42,64,185,161,108,0,63,0,224,154,10,105,31,208,20,47,164,146,164,106,25,239,65,177,102,71,66,241,200,254,65,251,67,192,150,113,21,28,159,254,-97,2.75,
22,2,15,70,0,241,191,93,41,3,186,76,210,0,185,135,221,0,63,0,239,70,31,31,24,218,156,96,169,212,169,75,151,158,65,177,102,71,66,241,200,254,65,251,85,160,152,32,24,137,157,83,-97,2.75,
22,2,15,89,0,242,191,93,40,80,186,80,130,0,185,142,74,0,63,0,240,116,30,241,18,156,150,208,170,12,37,65,35,23,65,177,102,71,66,241,200,254,65,251,119,120,149,254,24,155,145,188,-98,2.50,
22,2,16,9,0,243,191,93,38,136,186,81,251,64,185,168,89,0,63,0,243,131,14,69,32,123,153,253,160,7,30,83,152,194,65,177,102,71,66,241,200,254,65,251,47,102,141,114,24,62,159,200,-98,2.50,
22,2,16,28,0,244,191,93,42,164,186,80,65,0,185,133,237,0,63,0,236,124,25,232,30,20,146,112,154,3,168,5,161,50,65,177,102,71,66,241,200,254,65,251,69,196,16,108,16,47,157,52,-97,2.75,
22,2,16,48,0,245,191,93,42,192,186,82,111,64,185,153,14,0,63,0,236,75,29,130,29,152,158,165,169,166,28,222,35,224,65,177,102,71,66,241,200,254,65,251,93,134,131,219,22,5,156,161,-97,3.00,
22,2,16,68,0,246,191,93,42,187,186,83,232,64,185,121,16,0,63,0,236,84,31,149,137,241,148,66,165,16,37,134,33,76,65,177,102,71,66,241,200,254,65,251,110,10,142,38,20,150,156,143,-97,2.75,
22,2,16,87,0,247,191,93,40,93,186,86,108,192,185,138,212,0,63,0,240,96,15,128,31,67,148,158,40,64,162,166,160,185,65,177,102,71,66,241,200,254,65,251,50,95,23,226,140,56,161,209,-98,2.50,
22,2,17,7,0,248,191,93,38,136,186,86,125,128,185,162,198,0,63,0,243,137,28,112,22,173,21,60,169,165,25,41,32,32,65,177,102,71,66,241,200,254,65,251,73,235,140,195,138,226,161,28,-97,3.50,
22,2,17,26,0,249,191,93,29,152,186,95,182,0,185,86,14,0,63,1,2,215,31,249,24,149,157,156,29,82,153,71,156,146,65,177,102,71,66,241,200,254,65,251,87,24,133,217,22,203,160,195,-98,3.25,
22,2,17,46,0,250,191,93,22,11,186,96,69,192,185,135,64,0,63,1,15,197,28,111,26,27,9,220,34,124,40,18,32,65,65,177,102,71,66,241,200,254,65,251,103,108,22,74,24,41,156,83,-97,3.50,
22,2,17,66,0,251,191,93,28,193,186,91,68,64,185,106,66,0,63,1,4,71,29,82,19,86,24,234,161,178,164,81,150,243,65,177,102,71,66,241,200,254,65,251,106,217,142,114,19,189,155,213,-97,3.25,
22,2,17,85,0,252,191,93,25,238,186,82,124,128,185,171,204,0,63,1,9,33,29,100,20,229,16,193,172,142,20,95,36,131,65,177,102,71,66,241,200,254,65,251,27,130,141,14,18,217,162,70,-97,3.50,
22,2,18,5,0,253,191,93,21,192,186,81,169,128,185,127,216,0,63,1,16,76,28,208,28,121,157,85,14,42,168,83,163,83,65,177,102,71,66,241,200,254,65,251,58,152,19,98,24,32,158,238,-97,3.25,
22,2,18,25,0,254,191,93,20,108,186,87,248,128,185,135,196,0,63,1,18,143,29,228,22,105,146,147,129,3,39,56,34,240,65,177,102,71,66,241,200,254,65,251,62,54,15,168,24,94,160,215,-98,3.00,
22,2,18,44,0,255,191,93,17,79,186,80,106,0,185,131,55,0,63,1,23,226,27,141,26,119,135,163,168,200,157,117,30,18,65,177,102,71,66,241,200,254,65,251,86,0,147,175,27,238,158,33,-97,3.00,
22,2,18,64,1,0,191,93,19,90,186,76,128,128,185,171,228,0,63,1,20,104,25,108,29,80,153,70,172,163,166,0,31,198,65,177,102,71,66,241,200,254,65,251,101,53,149,109,23,181,154,218,-97,3.25,
22,2,18,83,1,1,191,93,18,91,186,78,1,64,185,141,31,0,63,1,22,28,31,85,26,79,158,118,170,206,17,107,36,101,65,177,102,71,66,241,200,254,65,251,25,129,152,134,25,65,161,96,-97,3.00,
22,2,19,3,1,2,191,93,13,162,186,81,44,192,185,137,207,0,63,1,30,48,31,170,29,65,160,99,160,127,167,7,153,175,65,177,102,71,66,241,200,254,65,251,57,69,149,196,24,244,157,189,-97,2.50,
22,2,19,23,1,3,191,93,9,99,186,85,44,128,185,80,50,0,63,1,37,116,33,61,9,92,156,41,167,4,18,5,31,96,65,177,102,71,66,241,200,254,65,251,59,127,152,217,25,238,157,150,-97,2.50,
22,2,19,42,1,4,191,93,7,74,186,81,237,128,185,104,180,0,63,1,41,13,29,98,24,124,152,121,168,81,31,159,25,64,65,177,102,71,66,241,200,254,65,251,81,64,153,247,28,112,153,29,-98,2.75,
22,2,19,62,1,5,191,93,5,141,186,82,196,64,185,140,2,0,63,1,44,3,24,133,26,20,22,28,150,167,154,206,155,255,65,177,102,71,66,241,200,254,65,251,8,130,153,7,27,238,160,172,-97,2.50,
22,2,19,82,1,6,191,93,10,220,186,80,249,192,185,146,28,0,63,1,34,237,26,104,29,229,152,177,164,236,158,21,8,176,65,177,102,71,66,241,200,254,65,251,11,50,153,80,24,10,161,196,-97,1.50,
22,2,20,1,1,7,191,93,2,158,186,84,127,128,185,118,94,0,63,1,49,13,30,152,17,152,145,158,168,85,31,74,30,123,65,177,102,72,66,241,200,254,65,251,22,132,155,106,27,173,161,23,-98,3.00,
22,2,20,21,1,8,191,93,2,164,186,87,188,128,185,97,6,0,63,1,49,0,28,195,30,172,157,114,163,67,27,167,29,68,65,177,102,72,66,241,200,254,65,251,37,75,156,129,26,98,158,225,-98,1.50,
22,2,20,41,1,9,191,93,4,250,186,79,254,64,185,134,76,0,63,1,45,4,20,226,29,147,21,185,162,140,162,120,16,60,65,177,102,72,66,241,200,254,65,251,52,182,154,79,25,166,152,76,-98,1.25,
22,2,20,60,1,10,191,93,2,244,186,84,199,192,185,157,0,0,63,1,48,118,21,44,32,41,156,122,164,11,29,38,32,7,65,177,102,72,66,241,200,254,65,250,233,57,153,225,25,248,160,217,-99,2.50,
22,2,20,80,1,11,191,92,250,246,186,86,193,192,185,150,14,0,63,1,62,33,29,43,24,35,143,184,165,190,153,151,24,230,65,177,102,72,66,241,200,254,65,250,243,161,153,173,27,68,157,201,-97,4.50,
22,2,20,99,1,12,191,92,254,100,186,82,147,192,185,118,150,0,63,1,56,74,29,136,30,1,156,147,163,161,157,170,32,236,65,177,102,72,66,241,200,254,65,251,21,2,156,56,25,210,146,177,-97,3.00,
22,2,21,19,1,13,191,92,251,165,186,79,183,0,185,119,152,0,63,1,60,247,27,106,26,254,19,200,35,229,33,77,152,154,65,177,102,72,66,241,200,254,65,251,29,251,154,161,26,84,150,200,-98,2.50,
22,2,21,39,1,14,191,92,248,90,186,80,35,192,185,181,10,0,63,1,66,150,150,87,33,144,154,85,168,98,160,161,29,10,65,177,102,72,66,241,200,254,65,251,47,131,152,13,25,212,149,198,-97,2.75,
22,2,21,58,1,15,191,92,248,186,186,74,237,64,185,166,23,0,63,1,65,245,152,90,33,132,153,235,168,155,162,71,26,59,65,177,102,72,66,241,200,254,65,250,240,94,153,43,23,181,159,141,-97,3.25,
22,2,21,78,1,16,191,92,243,117,186,80,69,128,185,141,55,0,63,1,74,243,26,114,30,149,158,81,164,236,164,129,148,133,65,177,102,72,66,241,200,254,65,250,255,193,152,88,26,1,157,50,-98,2.75,
22,2,21,98,1,17,191,92,238,156,186,87,217,0,185,146,100,0,63,1,83,64,25,94,29,24,151,167,163,229,155,178,32,5,65,177,102,72,66,241,200,254,65,251,19,123,149,86,25,247,152,12,-97,2.50,
22,2,22,17,1,18,191,92,234,172,186,87,131,128,185,97,4,0,63,1,89,250,25,56,29,245,150,122,159,137,33,156,30,124,65,177,102,72,66,241,200,254,65,251,18,235,152,80,28,23,153,182,-97,2.50,
22,2,22,37,1,19,191,92,231,108,186,89,199,192,185,144,159,0,63,1,95,131,21,76,29,17,23,99,160,220,158,22,152,181,65,177,102,72,66,241,200,254,65,250,202,11,152,38,25,225,161,107,-97,2.25,
22,2,22,56,1,20,191,92,231,58,186,83,206,128,185,146,180,0,63,1,95,221,25,76,26,187,133,21,163,192,160,182,27,49,65,177,102,72,66,241,200,254,65,250,208,19,151,58,24,253,161,119,-97,2.50,
22,2,22,76,1,21,191,92,221,63,186,87,214,128,185,142,228,0,63,1,112,225,31,41,23,223,157,175,167,227,168,9,18,250,65,177,102,72,66,241,200,254,65,250,212,137,153,48,27,249,161,248,-97,2.50,
22,2,22,96,1,22,191,92,223,128,186,90,67,128,185,102,138,0,63,1,109,10,29,217,27,160,156,48,165,66,160,166,27,2,65,177,102,72,66,241,200,254,65,250,230,62,153,69,26,150,161,65,-97,2.50,
22,2,23,15,1,23,191,92,218,72,186,92,77,64,185,157,120,0,63,1,117,242,26,86,30,46,156,132,162,149,160,222,29,239,65,177,102,72,66,241,200,254,65,250,244,39,149,80,28,19,160,110,-98,2.25,
22,2,23,35,1,24,191,92,217,191,186,88,176,64,185,162,235,0,63,1,118,220,32,34,21,39,151,113,172,71,157,247,37,121,65,177,102,72,66,241,200,254,65,250,172,20,156,128,26,14,164,32,-97,2.75,
22,2,23,54,1,25,191,92,215,34,186,84,58,192,185,168,144,0,63,1,123,79,28,58,31,42,157,134,172,118,156,194,37,17,65,177,102,72,66,241,200,254,65,250,184,209,151,93,24,248,161,217,-97,2.50,
22,2,23,74,1,26,191,92,212,133,186,90,146,192,185,140,196,0,63,1,127,199,30,136,22,111,153,16,166,199,168,69,164,22,65,177,102,72,66,241,200,254,65,250,191,140,152,143,26,134,157,0,-97,2.50,
22,2,23,94,1,27,191,92,209,103,186,102,68,192,185,146,209,0,63,1,133,20,32,17,26,250,157,130,169,37,158,9,31,81,65,177,102,72,66,241,200,254,65,250,213,49,153,94,27,135,146,164,-97,2.25,
22,2,24,13,1,28,191,92,205,234,186,96,211,128,185,172,202,0,63,1,139,7,30,176,28,213,157,111,173,48,155,137,37,197,65,177,102,72,66,241,200,254,65,250,227,68,154,157,27,147,21,12,-97,2.75,
22,2,24,33,1,29,191,92,204,124,186,103,195,0,185,122,202,0,63,1,141,119,29,250,29,201,157,221,149,28,168,169,161,192,65,177,102,72,66,241,200,254,65,250,169,233,153,226,26,57,156,39,-97,2.75,
22,2,24,52,1,30,191,92,204,67,186,105,74,128,185,166,82,0,63,1,141,214,29,83,27,47,141,117,157,41,165,102,158,18,65,177,102,72,66,241,200,254,65,250,186,30,144,3,25,0,153,139,-97,3.25,
22,2,24,72,1,31,191,92,203,245,186,101,227,64,185,141,104,0,63,1,142,94,32,195,26,100,158,170,171,13,36,158,33,209,65,177,102,72,66,241,200,254,65,250,188,49,148,70,24,64,155,210,-97,2.75,
22,2,24,92,1,32,191,92,201,50,186,118,10,128,185,100,98,0,63,1,147,19,33,171,153,39,150,45,37,198,152,13,162,250,65,177,102,72,66,241,200,254,65,250,196,95,152,83,20,79,153,131,-97,2.75,
22,2,25,11,1,33,191,92,200,222,186,114,188,0,185,116,154,0,63,1,147,160,31,107,27,229,151,30,39,149,162,170,154,39,65,177,102,72,66,241,200,254,65,250,132,183,149,69,148,124,160,167,-96,2.25,
22,2,25,31,1,34,191,92,197,112,186,103,216,128,185,163,79,0,63,1,153,120,32,7,12,47,128,183,170,115,31,27,33,223,65,177,102,72,66,241,200,254,65,250,126,37,6,137,14,99,162,34,-96,2.75,
22,2,25,51,1,35,191,92,193,185,186,115,48,128,185,87,56,0,63,1,159,206,33,205,17,137,161,190,164,96,161,40,23,115,65,177,102,72,66,241,200,254,65,250,123,208,145,248,14,179,161,190,-97,4.25,
22,2,25,70,1,36,191,92,185,242,186,129,199,32,185,46,24,0,63,1,173,10,33,103,19,182,159,1,45,33,37,230,165,207,65,177,102,72,66,241,200,254,65,250,129,219,152,127,139,7,158,10,-98,4.75,
22,2,25,90,1,37,191,92,190,0,186,120,42,192,185,68,44,0,63,1,166,32,30,77,27,88,21,98,44,104,40,217,161,235,65,177,102,72,66,241,200,254,65,250,136,174,149,147,136,198,155,74,-97,2.75,
22,2,26,9,1,38,191,92,188,43,186,110,54,64,185,157,158,0,63,1,169,67,31,222,28,106,157,155,170,75,165,56,28,110,65,177,102,72,66,241,200,254,65,250,70,6,153,246,149,156,160,204,-97,2.25,
22,2,26,29,1,39,191,92,179,81,186,109,225,128,185,140,227,0,63,1,184,83,33,4,24,86,161,80,169,53,158,189,33,64,65,177,102,72,66,241,200,254,65,250,74,126,153,155,18,15,156,249,-96,3.00,
22,2,26,49,1,40,191,92,179,185,186,118,115,64,185,101,124,0,63,1,183,164,32,4,20,251,158,109,39,39,40,161,34,198,65,177,102,72,66,241,200,254,65,250,76,45,137,115,20,236,158,60,-97,2.25,
22,2,26,68,1,41,191,92,177,223,186,119,252,128,185,107,116,0,63,1,186,197,30,133,25,113,153,52,40,103,157,133,160,203,65,177,102,72,66,241,200,254,65,250,80,159,152,14,136,157,159,188,-98,2.75,
22,2,26,88,1,42,191,92,175,100,186,109,123,0,185,157,93,0,63,1,191,0,31,121,27,153,157,132,168,19,164,182,155,171,65,177,102,72,66,241,200,254,65,250,95,90,153,11,14,246,155,63,-96,3.25,
22,2,27,7,1,43,191,92,175,107,186,101,231,192,185,170,150,0,63,1,190,243,29,169,13,230,149,153,169,224,31,18,33,234,65,177,102,72,66,241,200,254,65,250,44,32,152,167,10,209,160,81,-97,3.00,
22,2,27,27,1,44,191,92,171,232,186,110,243,128,185,153,137,0,63,1,196,235,25,116,30,207,160,64,160,34,165,250,161,142,65,177,102,72,66,241,200,254,65,250,68,137,16,40,23,39,152,177,-97,3.00,
22,2,27,47,1,45,191,92,182,93,186,119,11,0,185,138,57,0,63,1,179,31,28,8,28,13,6,87,34,242,37,149,33,156,65,177,102,72,66,241,200,255,65,250,84,201,144,191,144,170,145,216,-97,3.25,
22,2,27,66,1,46,191,92,180,233,186,114,42,192,185,172,40,0,63,1,181,154,29,214,26,37,144,113,172,14,161,190,33,147,65,177,102,72,66,241,200,255,65,250,101,124,156,62,146,253,26,166,-98,2.50,
22,2,27,86,1,47,191,92,178,249,186,110,70,192,185,141,38,0,63,1,184,229,32,52,148,213,145,159,169,79,169,107,157,60,65,177,102,72,66,241,200,255,65,250,51,157,157,48,152,223,151,50,-97,2.75,
22,2,28,5,1,48,191,92,175,103,186,100,221,192,185,170,75,0,63,1,190,253,30,141,28,91,159,144,172,236,164,175,30,196,65,177,102,72,66,241,200,255,65,250,56,104,153,211,146,51,157,104,-97,3.00,
22,2,28,25,1,49,191,92,179,219,186,99,70,64,185,193,47,0,63,1,183,102,28,128,24,103,152,58,172,1,153,5,37,42,65,177,102,72,66,241,200,255,65,250,74,131,151,87,148,100,155,23,-98,2.00,
22,2,28,45,1,50,191,92,179,159,186,105,57,64,185,135,154,0,63,1,183,206,33,30,16,223,156,142,167,148,167,32,28,34,65,177,102,72,66,241,200,255,65,250,79,156,157,24,153,76,137,165,-97,2.25,
22,2,28,64,1,51,191,92,175,231,186,98,118,64,185,173,174,0,63,1,190,31,31,67,25,57,154,22,171,52,166,93,32,213,65,177,102,72,66,241,200,255,65,250,91,212,156,48,152,110,20,73,-97,2.00,
22,2,28,84,1,52,191,92,177,120,186,89,25,0,185,169,97,0,63,1,187,120,29,81,25,253,151,5,172,116,166,20,34,228,65,177,102,72,66,241,200,255,65,250,37,28,154,49,152,211,155,77,-97,2.25,
22,2,29,3,1,53,191,92,171,15,186,87,207,128,185,200,71,0,63,1,198,94,32,46,146,171,152,43,176,7,168,71,37,219,65,177,102,72,66,241,200,255,65,250,51,147,155,51,151,0,150,25,-97,2.50,
22,2,29,23,1,54,191,92,171,148,186,87,74,192,185,191,61,0,63,1,197,120,30,227,19,27,153,241,172,252,164,130,36,39,65,177,102,72,66,241,200,255,65,250,64,44,154,18,149,230,145,125,-97,2.75,
22,2,29,43,1,55,191,92,167,42,186,92,54,128,185,177,212,0,63,1,204,254,33,240,146,89,156,47,172,73,155,168,36,43,65,177,102,72,66,241,200,255,65,250,85,39,157,54,152,219,20,90,-98,2.75,
22,2,29,62,1,56,191,92,169,54,186,77,130,64,185,189,25,0,63,1,201,130,29,43,23,69,22,181,174,135,160,241,37,116,65,177,102,72,66,241,200,255,65,250,38,20,156,157,154,32,154,194,-99,2.25,
22,2,29,82,1,57,191,92,166,145,186,88,151,192,185,216,221,0,63,1,206,1,30,136,28,240,157,149,175,39,169,88,38,12,65,177,102,72,66,241,200,255,65,250,53,66,155,213,154,222,148,156,-99,2.75,
22,2,30,1,1,58,191,92,166,21,186,91,246,128,185,158,44,0,63,1,206,213,33,57,136,124,157,104,172,156,164,179,34,96,65,177,102,72,66,241,200,255,65,250,75,23,154,215,152,69,26,145,-98,2.75,
22,2,30,21,1,59,191,92,163,165,186,99,122,0,185,166,138,0,63,1,210,247,32,34,23,111,155,180,163,233,166,9,20,136,65,177,102,72,66,241,200,255,65,250,84,212,153,1,151,222,28,153,-98,3.00,
22,2,30,41,1,60,191,92,164,24,186,104,168,200,177,44,9,31,227,57,30,160,183,100,158,111,148,137,171,109,163,241,33,174,65,177,102,72,66,241,200,255,65,250,110,49,155,120,154,43,32,71,-95,-3.00,
22,2,30,60,1,61,191,92,160,120,186,111,211,192,185,183,250,0,63,1,216,94,34,199,17,65,160,28,173,16,152,197,34,250,65,177,102,72,66,241,200,255,65,250,63,162,157,34,155,196,26,32,-98,2.25,
22,2,30,80,1,62,191,92,153,30,186,97,81,192,185,184,52,0,63,1,228,220,32,49,147,128,144,5,172,197,164,12,33,202,65,177,102,72,66,241,200,255,65,250,78,73,153,124,153,224,22,104,-98,2.50,
22,2,31,0,1,63,191,92,155,65,186,109,63,192,185,178,234,0,63,1,225,55,32,130,22,99,156,94,169,18,163,119,31,254,65,177,102,72,66,241,200,255,65,250,99,92,149,124,152,153,22,11,-98,2.50,
22,2,31,19,1,64,191,92,156,198,186,110,162,128,185,191,90,0,63,1,222,164,32,72,14,230,142,185,170,229,25,178,32,34,65,177,102,72,66,241,200,255,65,250,121,86,153,116,154,83,3,174,-97,2.50,
22,2,31,39,1,65,191,92,156,11,186,108,215,192,185,159,15,0,63,1,223,224,33,199,14,24,156,137,170,189,160,137,29,115,65,177,102,72,66,241,200,255,65,250,146,191,154,145,152,153,26,176,-98,2.50,
22,2,31,58,1,66,191,92,153,234,186,110,16,128,185,168,37,0,63,1,227,128,33,183,152,209,148,48,170,52,35,249,32,181,65,177,102,72,66,241,200,255,65,250,99,57,153,169,153,155,149,215,-98,3.00,
22,2,31,78,1,67,191,92,157,190,186,103,194,128,185,162,107,0,63,1,220,255,31,95,25,251,157,131,168,105,19,24,32,78,65,177,102,72,66,241,200,255,65,250,121,224,153,67,151,234,20,167,-97,2.25,
22,2,31,98,1,68,191,92,151,250,186,109,216,64,185,139,20,0,63,1,230,203,32,212,152,12,152,211,163,202,158,241,32,6,65,177,102,72,66,241,200,255,65,250,138,100,153,50,148,9,20,249,-97,2.50,
22,2,32,17,1,69,191,92,153,153,186,106,192,0,185,167,225,0,63,1,228,7,31,18,25,105,153,190,168,73,36,16,36,72,65,177,102,72,66,241,200,255,65,250,159,32,153,186,153,148,2,241,-97,3.25,
22,2,32,37,1,70,191,92,152,142,186,114,24,64,185,150,170,0,63,1,229,205,31,149,22,217,152,196,25,163,36,88,24,199,65,177,102,72,66,241,200,255,65,250,116,196,153,74,155,10,156,120,-98,2.75,
22,2,32,57,1,71,191,92,152,55,186,109,217,128,185,145,191,0,63,1,230,96,31,62,26,187,157,46,167,106,161,184,156,8,65,177,102,72,66,241,200,255,65,250,148,78,155,94,154,64,0,60,-97,2.75,
22,2,32,76,1,72,191,92,150,114,186,105,106,128,185,171,195,0,63,1,233,104,30,90,26,222,157,31,169,80,19,82,33,203,65,177,102,72,66,241,200,255,65,250,170,82,156,6,150,213,28,62,-97,2.50,
22,2,32,96,1,73,191,92,152,215,186,113,26,128,185,157,170,0,63,1,229,79,31,18,23,140,155,109,165,110,39,175,38,124,65,177,102,72,66,241,200,255,65,250,195,57,156,100,152,215,28,246,-96,3.00,
22,2,33,16,1,74,191,92,151,169,186,114,173,128,185,168,207,0,63,1,231,82,30,210,28,235,159,75,152,37,141,67,148,14,65,177,102,72,66,241,200,255,65,250,205,63,153,202,154,179,22,44,-96,2.50,
22,2,33,35,1,75,191,92,152,170,186,109,22,128,185,173,21,0,63,1,229,160,31,89,18,181,140,67,169,72,165,255,151,10,65,177,102,72,66,241,200,255,65,250,174,125,155,208,156,251,152,150,-97,2.75,
22,2,33,55,1,76,191,92,146,218,186,115,54,128,185,161,200,0,63,1,239,124,32,181,14,98,157,199,166,17,143,170,156,246,65,177,102,72,66,241,200,255,65,250,192,151,156,121,153,255,151,54,-97,2.50,
22,2,33,74,1,77,191,92,148,253,186,106,88,128,185,181,245,0,63,1,235,222,28,121,23,106,137,190,166,173,153,49,32,39,65,177,102,72,66,241,200,255,65,250,212,62,155,119,154,84,152,31,-98,2.75,
22,2,33,94,1,78,191,92,145,240,186,111,177,128,185,189,85,0,63,1,241,8,28,50,30,73,158,74,164,223,162,203,24,14,65,177,102,72,66,241,200,255,65,250,241,160,154,158,156,23,22,41,-97,2.75,
22,2,34,14,1,79,191,92,150,30,186,107,249,0,185,174,10,0,63,1,233,243,29,198,23,30,150,82,166,189,35,23,38,217,65,177,102,72,66,241,200,255,65,251,3,201,153,218,154,113,24,229,-98,2.50,
22,2,34,33,1,80,191,92,149,133,186,108,98,128,185,170,65,0,63,1,234,246,29,186,29,153,158,204,165,79,164,76,149,209,65,177,102,72,66,241,200,255,65,250,223,43,155,17,156,170,149,186,-97,2.50,
22,2,34,53,1,81,191,92,150,127,186,102,49,64,185,160,175,0,63,1,233,79,31,185,147,141,4,143,168,99,160,167,27,53,65,177,102,72,66,241,200,255,65,250,239,160,156,74,156,136,154,94,-98,3.00,
22,2,34,72,1,82,191,92,147,247,186,99,198,128,185,190,105,0,63,1,237,151,29,109,28,229,156,159,170,52,150,196,32,203,65,177,102,73,66,241,200,255,65,251,6,103,155,161,156,161,148,251,-97,2.50,
22,2,34,92,1,83,191,92,150,81,186,97,149,192,185,174,37,0,63,1,233,158,29,111,27,123,154,54,169,140,165,180,29,239,65,177,102,73,66,241,200,255,65,251,24,210,154,119,154,7,137,136,-98,3.00,
22,2,35,12,1,84,191,92,149,18,186,107,120,192,185,164,242,0,63,1,235,185,29,242,28,221,158,102,167,236,169,24,154,10,65,177,102,73,66,241,200,255,65,250,242,121,156,34,156,105,156,17,-97,2.75,
22,2,35,31,1,85,191,92,148,255,186,107,155,64,185,185,18,0,63,1,235,214,29,192,26,194,154,21,170,113,150,165,28,161,65,177,102,73,66,241,200,255,65,251,14,149,155,225,156,208,146,233,-97,2.75,
22,2,35,51,1,86,191,92,148,130,186,102,147,64,185,168,105,0,63,1,236,171,30,231,28,62,157,108,171,148,167,247,150,66,65,177,102,73,66,241,200,255,65,251,36,117,155,96,157,61,149,55,-98,3.00,
22,2,35,71,1,87,191,92,144,152,186,99,62,128,185,163,176,0,63,1,243,80,31,61,147,208,20,44,168,142,163,168,151,218,65,177,102,73,66,241,200,255,65,251,46,178,153,245,156,109,130,92,-98,2.75,
22,2,35,90,1,88,191,92,143,10,186,103,240,192,185,141,172,0,63,1,245,248,30,177,26,103,154,25,157,125,168,102,163,225,65,177,102,73,66,241,200,255,65,251,57,32,151,242,155,115,23,174,-97,3.00,
22,2,36,10,1,89,191,92,142,116,186,106,235,0,185,154,26,0,63,1,246,243,30,208,24,21,153,27,166,160,164,130,12,200,65,177,102,73,66,241,200,255,65,251,9,120,154,12,155,202,153,82,-98,3.00,
22,2,36,29,1,90,191,92,143,66,186,95,6,192,185,162,210,0,63,1,245,154,30,0,23,253,134,250,170,92,160,106,32,90,65,177,102,73,66,241,200,255,65,251,21,219,153,64,156,163,156,71,-97,2.75,
22,2,36,49,1,91,191,92,139,12,186,102,209,192,185,176,171,0,63,1,252,188,31,98,26,241,155,41,170,0,161,160,157,90,65,177,102,73,66,241,200,255,65,251,36,54,156,72,157,219,158,109,-99,3.00,
22,2,36,69,1,92,191,92,141,205,186,100,148,128,185,132,21,0,63,1,248,15,31,119,25,191,153,172,165,241,160,93,157,221,65,177,102,73,66,241,200,255,65,251,38,120,154,123,156,132,158,238,-97,2.75,
22,2,36,88,1,93,191,92,132,189,186,102,146,64,185,143,160,0,63,2,7,112,30,115,28,75,158,53,151,194,165,180,158,44,65,177,102,73,66,241,200,255,65,251,56,124,155,56,152,169,148,3,-97,3.00,
22,2,37,8,1,94,191,92,132,218,186,107,183,128,185,143,137,0,63,2,7,63,30,203,26,208,151,253,32,3,36,216,29,43,65,177,102,73,66,241,200,255,65,251,14,7,156,76,154,181,157,29,-98,2.75,
22,2,37,27,1,95,191,92,134,162,186,99,240,192,185,136,22,0,63,2,4,58,30,144,29,137,157,202,16,43,33,37,24,239,65,177,102,73,66,241,200,255,65,251,35,175,157,120,141,227,149,198,-97,2.75,
22,2,37,47,1,96,191,92,133,55,186,97,110,64,185,130,101,0,63,2,6,165,30,212,21,83,144,232,34,125,156,9,162,180,65,177,102,73,66,241,200,255,65,251,55,231,156,103,145,192,20,101,-97,3.00,
22,2,37,67,1,97,191,92,132,237,186,104,202,64,185,132,239,0,63,2,7,33,30,39,30,49,158,3,40,113,41,40,158,148,65,177,102,73,66,241,200,255,65,251,72,112,157,75,148,248,25,5,-97,2.75,
22,2,37,86,1,98,191,92,131,158,186,107,142,128,185,128,64,0,63,2,9,89,29,243,28,164,156,147,42,203,32,51,165,52,65,177,102,73,66,241,200,255,65,251,45,226,157,168,150,137,5,73,-97,2.50,
22,2,38,6,1,99,191,92,131,17,186,97,141,0,185,138,62,0,63,2,10,68,29,6,29,62,157,171,35,152,164,73,154,3,65,177,102,73,66,241,200,255,65,251,67,57,157,115,149,81,141,118,-97,2.75,
22,2,38,26,1,100,191,92,128,63,186,98,172,192,185,150,88,0,63,2,15,13,30,2,24,14,154,244,152,194,38,53,33,208,65,177,102,73,66,241,200,255,65,251,68,145,156,119,152,66,154,171,-97,2.75,
22,2,38,45,1,101,191,92,127,64,186,102,0,64,185,128,44,0,63,2,16,190,27,218,29,52,157,126,40,221,31,170,154,49,65,177,102,73,66,241,200,255,65,251,81,32,155,174,152,15,156,62,-98,3.00,
22,2,38,65,1,102,191,92,122,153,186,102,63,128,185,158,203,0,63,2,24,162,25,173,26,128,22,27,41,175,32,37,159,66,65,177,102,73,66,241,200,255,65,251,82,70,155,113,149,135,149,79,-97,3.00,
22,2,38,84,1,103,191,92,123,7,186,96,202,128,185,160,196,0,63,2,23,232,28,61,25,232,148,171,33,246,156,99,161,235,65,177,102,73,66,241,200,255,65,251,37,240,156,6,150,65,156,210,-99,3.00,
22,2,39,4,1,104,191,92,119,208,186,97,111,64,185,162,52,0,63,2,29,93,30,188,20,117,152,93,158,22,28,73,19,78,65,177,102,73,66,241,200,255,65,251,48,18,154,235,153,29,151,80,-98,3.00,
22,2,39,23,1,105,191,92,118,116,186,95,64,128,185,154,103,0,63,2,31,167,24,196,31,53,157,238,32,247,32,222,27,18,65,177,102,73,66,241,200,255,65,251,67,57,152,194,150,192,147,196,-99,3.00,
22,2,39,43,1,106,191,92,116,224,186,98,57,64,185,170,182,0,63,2,34,83,22,135,31,92,154,147,37,225,157,96,20,32,65,177,102,73,66,241,200,255,65,251,68,188,151,224,152,142,153,171,-98,3.00,
22,2,39,63,1,107,191,92,116,152,186,93,24,0,185,151,58,0,63,2,34,207,28,154,28,212,155,77,22,62,166,122,162,51,65,177,102,73,66,241,200,255,65,251,65,65,151,171,153,209,157,245,-98,3.00,
22,2,39,82,1,108,191,92,116,38,186,87,193,0,185,154,102,0,63,2,35,146,28,164,29,209,159,124,168,164,17,73,28,221,65,177,102,73,66,241,200,255,65,251,29,84,153,67,155,54,160,205,-97,2.75,
22,2,40,2,1,109,191,92,113,20,186,92,165,0,185,163,199,0,63,2,40,198,28,39,28,129,154,122,167,44,159,51,2,80,65,177,102,73,66,241,200,255,65,251,23,251,148,199,156,204,161,254,-98,2.75,
22,2,40,21,1,110,191,92,111,92,186,94,192,128,185,184,131,0,63,2,43,172,21,36,31,187,156,149,157,223,168,39,159,57,65,177,102,73,66,241,200,255,65,251,14,111,144,8,156,221,163,42,-100,2.25,
22,2,40,41,1,111,191,92,114,156,186,99,117,64,185,175,60,0,63,2,38,41,27,32,25,38,144,149,165,244,32,23,28,129,65,177,102,73,66,241,200,255,65,251,19,224,148,210,156,5,161,214,-101,2.75,
22,2,40,61,1,112,191,92,112,79,186,102,92,64,185,177,41,0,63,2,42,14,29,69,26,39,154,26,164,162,26,2,31,161,65,177,102,73,66,241,200,255,65,250,238,54,153,110,156,229,163,192,-98,2.50,
22,2,40,80,1,113,191,92,111,44,186,97,237,0,185,166,178,0,63,2,44,0,27,140,30,41,153,139,30,203,157,46,156,200,65,177,102,73,66,241,200,255,65,250,238,48,151,207,156,40,161,187,-98,2.50,
22,2,41,0,1,114,191,92,112,41,186,94,189,64,185,168,77,0,63,2,42,79,25,52,32,35,156,29,29,203,162,122,161,155,65,177,102,73,66,241,200,255,65,250,247,176,140,6,154,181,159,250,-97,2.75,
22,2,41,20,1,115,191,92,110,32,186,101,39,192,185,173,121,0,63,2,45,195,29,27,24,73,13,133,165,117,157,37,158,111,65,177,102,73,66,241,200,255,65,250,252,180,144,161,155,70,160,37,-98,2.75,
22,2,41,39,1,116,191,92,108,20,186,102,242,128,185,180,235,0,63,2,49,60,29,103,30,23,158,7,162,159,31,168,159,205,65,177,102,73,66,241,200,255,65,251,2,139,146,135,155,100,160,45,-98,2.75,
22,2,41,59,1,117,191,92,108,40,186,96,166,128,185,180,153,0,63,2,49,24,25,83,29,68,0,111,150,207,156,210,153,183,65,177,102,73,66,241,200,255,65,250,209,58,16,71,157,6,162,206,-98,3.00,
22,2,41,78,1,118,191,92,109,4,186,96,199,192,185,179,178,0,63,2,47,164,17,117,33,32,156,36,28,19,159,130,157,123,65,177,102,73,66,241,200,255,65,250,221,195,21,163,156,95,160,52,-98,2.50,
22,2,41,98,1,119,191,92,109,221,186,100,205,192,185,139,223,0,63,2,46,54,28,59,28,57,153,53,32,69,143,64,160,147,65,177,102,73,66,241,200,255,65,250,226,116,146,82,156,93,157,198,-98,2.25,
22,2,42,18,1,120,191,92,110,74,186,98,107,0,185,75,248,0,63,2,45,127,29,111,24,53,148,123,38,138,28,153,159,39,65,177,102,73,66,241,200,255,65,250,226,131,153,115,154,46,157,176,-97,2.75,
22,2,42,37,1,121,191,92,110,90,186,93,193,192,185,72,110,0,63,2,45,100,26,145,25,186,24,194,40,198,37,61,12,68,65,177,102,73,66,241,200,255,65,250,201,145,151,95,156,11,160,42,-98,2.75,
22,2,42,57,1,122,191,92,110,234,186,93,130,64,185,100,32,0,63,2,44,110,134,117,32,248,156,99,40,168,162,79,163,11,65,177,102,73,66,241,200,255,65,250,209,47,146,218,155,25,158,133,-97,3.00,
22,2,42,76,1,123,191,92,108,15,186,100,232,192,185,58,138,0,63,2,49,67,26,236,28,16,152,176,41,130,30,139,160,219,65,177,102,73,66,241,200,255,65,250,213,82,151,40,153,251,152,205,-98,2.75,
22,2,42,96,1,124,191,92,109,126,186,105,11,128,185,10,222,0,63,2,46,217,29,208,25,161,145,253,45,175,40,191,159,179,65,177,102,73,66,241,200,255,65,250,229,24,154,16,152,158,146,213,-98,2.75,
22,2,43,16,1,125,191,92,107,96,186,88,46,0,185,105,98,0,63,2,50,110,18,151,32,66,151,88,39,239,28,107,163,171,65,177,102,73,66,241,200,255,65,250,245,88,152,18,153,41,150,6,-99,3.00,
22,2,43,35,1,126,191,92,108,45,186,84,182,64,185,46,22,0,63,2,49,17,24,26,29,72,143,60,23,150,164,227,20,245,65,177,102,73,66,241,200,255,65,250,217,47,153,83,154,162,156,94,-99,3.00,
22,2,43,55,1,127,191,92,104,185,186,90,145,128,185,78,176,0,63,2,54,232,23,114,32,65,159,8,36,118,32,91,141,64,65,177,102,73,66,241,200,255,65,250,231,211,153,77,151,124,144,124,-98,3.00,
22,2,43,75,1,128,191,92,104,206,186,78,217,64,185,14,194,0,63,2,54,197,22,119,28,146,1,50,41,60,160,213,160,120,65,177,102,73,66,241,200,255,65,250,234,82,153,168,141,209,24,59,-98,2.75,
22,2,43,94,1,129,191,92,107,20,186,83,18,0,185,15,234,0,63,2,50,239,23,18,28,215,16,111,38,84,28,211,161,96,65,177,102,73,66,241,200,255,65,250,247,237,154,209,149,7,23,144,-98,3.00,
22,2,44,14,1,130,191,92,109,53,186,73,50,128,185,7,184,0,63,2,47,83,22,209,29,23,18,24,162,91,29,35,155,64,65,177,102,73,66,241,200,255,65,250,243,114,156,87,141,65,21,81,-98,2.75,
22,2,44,33,1,131,191,92,107,224,186,74,204,192,184,210,184,0,63,2,49,150,25,160,29,22,155,63,160,194,157,229,159,13,65,177,102,73,66,241,200,255,65,250,227,73,157,122,7,96,135,219,-99,3.00,
22,2,44,53,1,132,191,92,102,163,186,72,75,0,184,213,80,0,63,2,58,118,23,114,27,119,0,252,20,51,33,198,30,250,65,177,102,73,66,241,200,255,65,250,227,188,156,161,19,75,143,102,-99,2.75,
22,2,44,73,1,133,191,92,95,102,186,69,56,0,184,236,216,0,63,2,70,182,23,25,29,26,11,233,160,46,36,94,33,115,65,177,102,73,66,241,200,255,65,250,234,130,155,126,22,180,20,126,-97,3.00,
22,2,44,92,1,134,191,92,86,210,186,71,229,0,184,232,232,0,63,2,85,50,25,250,27,177,139,112,165,50,163,123,157,190,65,177,102,73,66,241,200,255,65,250,243,135,156,102,21,14,25,28,-97,2.75,
22,2,45,12,1,135,191,92,86,204,186,67,239,64,184,141,28,0,63,2,85,62,26,110,31,162,158,246,164,206,164,47,164,99,65,177,102,73,66,241,200,255,65,250,218,181,158,20,20,135,9,237,-97,3.00,
22,2,45,31,1,136,191,92,77,79,186,66,93,64,184,179,4,0,63,2,101,70,23,14,30,8,147,232,150,245,24,135,145,20,65,177,102,73,66,241,200,255,65,250,217,89,156,173,24,182,17,20,-98,2.00,
22,2,45,51,1,137,191,92,79,94,186,64,127,64,184,211,172,0,63,2,97,205,20,81,32,48,154,165,165,169,159,156,32,3,65,177,102,73,66,241,200,255,65,250,221,103,156,94,23,203,18,155,-98,2.75,
22,2,45,71,1,138,191,92,70,156,186,69,228,64,184,184,88,0,63,2,112,154,28,253,26,72,8,72,164,189,154,110,13,20,65,177,102,73,66,241,200,255,65,250,223,158,157,125,20,251,18,207,-98,3.00,
22,2,45,90,1,139,191,92,69,214,186,70,58,192,184,129,124,0,63,2,113,230,30,5,27,32,153,64,164,46,30,107,156,198,65,177,102,73,66,241,200,255,65,250,217,187,157,230,18,26,152,7,-97,3.00,
22,2,46,10,1,140,191,92,68,112,186,63,175,192,184,227,208,0,63,2,116,68,25,232,31,179,155,219,166,117,164,119,158,96,65,177,102,73,66,241,200,255,65,250,184,186,157,223,16,233,157,123,-97,3.00,
22,2,46,29,1,141,191,92,59,192,186,60,115,64,184,185,252,0,63,2,130,241,16,100,28,139,26,47,164,232,165,74,147,166,65,177,102,73,66,241,200,255,65,250,193,224,154,106,16,39,159,128,-97,2.75,
22,2,46,49,1,142,191,92,62,128,186,65,229,64,184,230,224,0,63,2,126,73,25,49,27,45,148,91,164,126,34,82,35,179,65,177,102,73,66,241,200,255,65,250,200,20,157,56,16,183,156,7,-97,2.75,
22,2,46,69,1,143,191,92,55,76,186,71,28,192,184,12,80,0,63,2,138,112,26,124,29,22,154,80,40,44,159,234,160,38,65,177,102,73,66,241,200,255,65,250,203,123,156,176,20,207,15,12,-97,2.75,
22,2,46,88,1,144,191,92,56,146,186,69,103,64,183,243,0,0,63,2,136,74,25,145,30,14,147,218,37,22,32,202,24,109,65,177,102,73,66,241,200,255,65,250,208,211,157,112,145,255,148,144,-97,2.75,
22,2,47,8,1,145,191,92,55,150,186,63,79,128,184,188,200,0,63,2,137,244,22,60,29,247,22,60,167,211,37,42,30,127,65,177,102,73,66,241,200,255,65,250,180,136,158,24,6,241,155,252,-97,2.75,
22,2,47,27,1,146,191,92,39,87,186,60,132,64,184,101,192,0,63,2,165,90,23,252,31,97,156,136,168,32,168,95,160,201,65,177,102,73,66,241,200,255,65,250,176,178,156,187,18,79,155,105,-97,3.00,
22,2,47,47,1,147,191,92,25,151,186,70,20,192,184,76,48,0,63,2,188,130,23,58,28,55,15,203,40,141,34,238,156,252,65,177,102,73,66,241,200,255,65,250,175,48,156,50,25,120,145,29,-97,3.00,
22,2,47,66,1,148,191,92,21,254,186,66,43,192,184,92,200,0,63,2,194,146,11,58,32,169,156,86,41,29,35,214,33,14,65,177,102,73,66,241,200,255,65,250,167,116,153,133,26,25,24,81,-99,2.75,
22,2,47,86,1,149,191,92,21,162,186,60,226,0,184,122,64,0,63,2,195,45,24,204,29,119,20,158,154,54,164,140,161,218,65,177,102,73,66,241,200,255,65,250,129,229,156,61,22,156,153,90,-99,3.50,
22,2,48,6,1,150,191,92,20,194,186,56,112,128,183,245,112,0,63,2,196,167,23,129,30,215,156,69,152,148,158,192,155,196,65,177,102,73,66,241,200,255,65,250,130,8,156,186,20,103,150,67,-98,3.75,
22,2,48,25,1,151,191,92,13,213,186,60,126,128,181,202,0,0,63,2,208,79,24,220,27,94,150,97,42,38,38,136,157,41,65,177,102,73,66,241,200,255,65,250,128,145,155,91,27,244,128,64,-98,3.75,
22,2,48,45,1,152,191,92,3,24,186,56,40,64,184,74,80,0,63,2,226,96,148,12,31,147,140,250,36,170,154,122,164,233,65,177,102,73,66,241,200,255,65,250,129,201,150,231,28,141,16,210,-97,3.50,
22,2,48,64,1,153,191,92,0,215,186,56,196,128,184,161,212,0,63,2,230,37,18,21,31,89,153,86,22,76,36,82,24,87,65,177,102,73,66,241,200,255,65,250,121,49,154,112,25,239,10,176,-100,3.50,
22,2,48,84,1,154,191,91,254,163,186,62,42,0,55,108,96,0,63,2,233,218,28,107,23,5,145,216,42,95,39,182,158,167,65,177,102,73,66,241,200,255,65,250,97,175,156,134,26,226,151,253,-100,3.50,
22,2,49,4,1,155,191,92,1,230,186,57,4,192,184,64,128,0,63,2,228,97,141,54,32,24,149,10,44,206,162,219,167,146,65,177,102,73,66,241,200,255,65,250,97,236,155,61,24,251,144,94,-100,3.75,
22,2,49,23,1,156,191,92,1,18,186,50,137,0,184,150,252,0,63,2,229,196,24,81,28,63,24,93,26,158,31,181,145,252,65,177,102,73,66,241,200,255,65,250,103,183,155,231,24,136,16,190,-99,3.75,
22,2,49,43,1,157,191,91,251,188,186,53,108,128,184,204,96,0,63,2,238,184,29,104,29,76,156,165,165,21,34,112,30,178,65,177,102,73,66,241,200,255,65,250,108,54,157,139,23,210,26,157,-97,3.75,
22,2,49,62,1,158,191,91,251,71,186,47,0,128,183,192,16,0,63,2,239,127,26,171,28,214,151,78,41,83,9,232,160,149,65,177,102,73,66,241,200,255,65,250,108,112,156,141,22,173,14,155,-100,3.50,
22,2,49,82,1,159,191,91,250,207,186,45,249,128,184,182,248,0,63,2,240,72,19,252,32,186,156,57,35,202,17,189,163,73,65,177,102,73,66,241,200,255,65,250,76,23,155,70,21,133,155,59,-102,3.25,
22,2,50,2,1,160,191,91,250,34,186,35,24,0,184,192,52,0,63,2,241,108,24,212,25,243,23,24,168,94,28,106,146,176,65,177,102,73,66,241,200,255,65,250,70,240,156,126,23,180,155,137,-98,3.75,
22,2,50,21,1,161,191,91,243,127,186,43,174,128,184,183,108,0,63,2,252,147,28,15,29,161,157,130,162,112,163,17,153,109,65,177,102,73,66,241,200,255,65,250,69,223,156,196,23,234,153,38,-97,3.75,
22,2,50,41,1,162,191,91,233,0,186,45,10,64,184,168,112,0,63,3,14,45,18,2,32,59,157,220,38,215,37,55,30,92,65,177,102,73,66,241,200,255,65,250,65,49,152,135,24,26,154,153,-97,3.75,
22,2,50,60,1,163,191,91,234,38,186,41,189,0,184,176,204,0,63,3,12,68,144,6,32,165,155,251,25,95,36,160,35,165,65,177,102,73,66,241,200,255,65,250,37,145,153,150,26,72,157,254,-99,3.75,
22,2,50,80,1,164,191,91,235,209,186,38,241,192,184,181,52,0,63,3,9,117,22,199,29,48,21,120,167,92,163,130,162,51,65,177,102,73,66,241,200,255,65,250,31,1,157,4,23,39,159,171,-97,3.50,
22,2,51,0,1,165,191,91,230,199,186,40,155,192,184,92,64,0,63,3,17,236,27,197,29,77,157,91,155,31,157,163,14,240,65,177,102,73,66,241,200,255,65,250,29,207,157,38,24,32,160,35,-96,3.75,
22,2,51,19,1,166,191,91,213,40,186,42,165,64,184,174,240,0,63,3,47,117,24,71,31,62,156,147,32,203,40,50,29,131,65,177,102,73,66,241,200,255,65,250,38,104,154,254,27,89,157,91,-98,3.75,
22,2,51,39,1,167,191,91,224,33,186,38,4,64,184,165,148,0,63,3,29,20,8,175,29,212,24,71,160,154,162,208,26,28,65,177,102,73,66,241,200,255,65,250,45,198,156,23,24,224,152,125,-98,3.50,
22,2,51,58,1,168,191,91,222,86,186,34,76,0,185,1,164,0,63,3,32,21,23,109,29,86,10,6,170,133,153,66,33,193,65,177,102,73,66,241,200,255,65,250,21,103,158,5,24,66,156,161,-97,3.75,
22,2,51,78,1,169,191,91,200,141,186,33,66,192,184,174,156,0,63,3,68,150,21,250,28,125,17,179,167,0,31,94,155,137,65,177,102,73,66,241,200,255,65,250,18,132,156,78,27,7,153,9,-99,3.75,
22,2,51,98,1,170,191,91,187,142,186,41,255,192,185,1,146,0,63,3,90,82,21,91,29,79,150,203,164,152,169,54,162,28,65,177,102,73,66,241,200,255,65,250,18,224,153,66,27,188,151,193,-98,3.75,
22,2,52,17,1,171,191,91,192,227,186,43,167,128,185,3,116,0,63,3,81,103,24,201,30,145,155,45,170,244,21,135,28,213,65,177,102,73,66,241,200,255,65,250,16,106,155,197,22,42,155,23,-98,3.75,
22,2,52,37,1,172,191,91,192,11,186,49,230,0,184,180,172,0,63,3,82,207,26,15,29,246,154,160,165,62,28,14,25,250,65,177,102,73,66,241,200,255,65,249,255,68,156,208,21,112,157,192,-97,3.75,
22,2,52,57,1,173,191,91,183,124,186,50,45,64,184,125,144,0,63,3,97,35,22,174,30,176,152,80,28,100,164,122,22,48,65,177,102,73,66,241,200,255,65,249,243,224,156,99,128,110,160,237,-97,3.75,
22,2,52,76,1,174,191,91,174,252,186,52,128,64,184,120,160,0,63,3,111,88,26,226,31,23,156,168,162,129,165,240,162,117,65,177,102,73,66,241,200,255,65,249,236,219,156,51,130,88,160,82,-99,4.00,
22,2,52,96,1,175,191,91,173,213,186,51,148,64,184,80,176,0,63,3,113,66,27,124,25,250,143,198,170,29,33,118,28,14,65,177,102,73,66,241,200,255,65,249,252,82,156,66,21,192,153,183,-97,3.50,
22,2,53,16,1,176,191,91,172,218,186,55,61,128,184,121,0,0,63,3,114,234,28,222,28,78,153,199,169,194,160,43,145,106,65,177,102,73,66,241,200,255,65,250,5,79,157,253,17,244,144,9,-98,3.75,
22,2,53,35,1,177,191,91,172,161,186,57,135,64,183,226,240,0,63,3,115,69,27,151,27,90,150,211,31,55,161,27,158,100,65,177,102,73,66,241,200,255,65,249,254,44,157,247,9,197,152,18,-97,3.75,
22,2,53,55,1,178,191,91,172,179,186,55,216,64,183,107,192,0,63,3,115,42,22,171,31,191,154,121,32,226,37,43,25,184,65,177,102,73,66,241,200,255,65,250,7,37,157,155,8,117,145,252,-97,4.00,
22,2,53,74,1,179,191,91,161,233,186,51,213,128,183,172,96,0,63,3,133,48,24,52,28,177,23,77,162,54,167,121,163,0,65,177,102,73,66,241,200,255,65,250,20,218,157,136,13,63,11,111,-97,4.00,
22,2,53,94,1,180,191,91,160,207,186,53,35,128,53,168,0,0,63,3,135,8,25,111,31,228,156,228,161,11,30,28,154,252,65,177,102,73,66,241,200,255,65,250,25,113,158,174,141,68,144,3,-97,4.00,
22,2,54,14,1,181,191,91,159,158,186,52,75,0,55,241,64,0,63,3,137,5,25,204,27,13,24,198,30,110,26,85,164,97,65,177,102,73,66,241,200,255,65,250,25,111,158,250,16,218,152,136,-97,4.00,
22,2,54,33,1,182,191,91,160,8,186,52,169,64,56,23,136,0,63,3,136,83,24,79,30,206,153,46,165,18,166,67,150,52,65,177,102,73,66,241,200,255,65,250,21,229,159,138,15,68,153,227,-97,3.75,
22,2,54,53,1,183,191,91,151,94,186,60,65,0,55,40,192,0,63,3,150,200,28,149,26,158,147,28,164,88,161,31,9,176,65,177,102,73,66,241,200,255,65,250,25,69,158,64,146,25,154,35,-98,4.00,
22,2,54,73,1,184,191,91,151,83,186,62,19,64,56,47,32,0,63,3,150,218,27,2,30,114,156,203,39,68,35,9,23,115,65,177,102,73,66,241,200,255,65,250,35,62,158,255,19,128,153,158,-97,3.75,
22,2,54,92,1,185,191,91,139,28,186,55,190,128,55,16,64,0,63,3,171,60,19,111,29,194,15,218,153,64,162,188,160,12,65,177,102,73,66,241,200,255,65,250,48,185,157,160,20,61,152,70,-98,3.50,
22,2,55,12,1,186,191,91,138,10,186,63,38,128,55,128,112,0,63,3,172,255,26,52,30,206,156,210,163,25,28,213,161,13,65,177,102,73,66,241,200,255,65,250,42,73,159,44,21,222,154,79,-97,4.00,
22,2,55,31,1,187,191,91,135,212,186,65,153,192,56,122,168,0,63,3,176,177,30,25,27,249,157,45,28,139,141,43,160,39,65,177,102,73,66,241,200,255,65,250,48,11,160,45,21,140,145,107,-97,3.50,
22,2,55,51,1,188,191,91,122,182,186,56,103,192,56,62,192,0,63,3,198,143,25,188,28,244,154,24,21,138,26,181,26,131,65,177,102,73,66,241,200,255,65,250,57,113,158,154,23,124,20,192,-98,3.50,
22,2,55,71,1,189,191,91,122,41,186,56,12,192,184,27,200,0,63,3,199,122,23,86,28,175,16,149,168,59,33,158,36,247,65,177,102,73,66,241,200,255,65,250,40,164,157,136,22,170,154,104,-98,3.50,
22,2,55,90,1,190,191,91,127,243,186,62,78,192,56,13,32,0,63,3,189,214,25,0,30,193,154,161,161,137,152,126,141,216,65,177,102,73,66,241,200,255,65,250,38,104,157,244,17,58,154,50,-98,3.75,
22,2,56,10,1,191,191,91,125,5,186,73,77,128,56,19,32,0,63,3,194,185,26,199,30,134,154,202,36,182,33,17,160,92,65,177,102,73,66,241,200,255,65,250,20,130,160,10,142,186,157,92,-98,3.50,
22,2,56,29,1,192,191,91,95,216,186,69,190,192,56,19,64,0,63,3,243,69,25,228,26,218,24,32,38,117,38,83,24,140,65,177,102,73,66,241,200,255,65,250,17,157,157,166,20,63,156,165,-97,3.50,
22,2,56,49,1,193,191,91,82,226,186,63,106,128,180,232,0,0,63,4,8,204,140,2,32,65,156,47,36,116,169,0,162,47,65,177,102,73,66,241,200,255,65,250,21,136,156,111,25,78,155,40,-100,3.75,
22,2,56,69,1,194,191,91,82,92,186,57,76,192,56,1,208,0,63,4,9,172,14,119,29,218,151,40,158,134,25,126,27,51,65,177,102,73,66,241,200,255,65,250,24,75,155,61,24,46,148,39,-100,3.25,
22,2,56,88,1,195,191,91,82,135,186,73,68,0,56,93,40,0,63,4,9,101,24,185,31,238,158,66,40,233,37,207,160,150,65,177,102,73,66,241,200,255,65,250,25,105,157,176,24,229,148,79,-102,3.25,
22,2,57,8,1,196,191,91,84,136,186,69,88,128,57,1,240,0,63,4,6,16,24,218,27,172,22,26,39,246,164,65,166,206,65,177,102,73,66,241,200,255,65,250,14,245,158,246,25,77,152,239,-103,3.00,
22,2,57,27,1,197,191,91,75,145,186,55,205,128,56,56,120,0,63,4,20,243,21,208,29,252,150,218,164,99,161,214,163,166,65,177,102,73,66,241,200,255,65,250,7,180,158,235,24,169,152,186,-104,3.00,
22,2,57,47,1,198,191,91,59,202,186,53,7,0,56,19,136,0,63,4,47,34,17,23,27,108,23,68,157,127,25,124,29,77,65,177,102,73,66,241,200,255,65,250,2,24,156,175,26,60,146,71,-97,3.75,
22,2,57,67,1,199,191,91,48,76,186,50,38,64,55,177,208,0,63,4,66,51,148,77,32,156,153,42,152,147,165,184,157,245,65,177,102,73,66,241,200,255,65,249,248,185,154,32,26,40,20,39,-97,3.75,
22,2,57,86,1,200,191,91,47,36,186,56,6,0,56,76,112,0,63,4,68,25,27,9,26,79,148,216,35,9,163,147,165,174,65,177,102,73,66,241,200,255,65,249,230,48,157,37,25,218,148,95,-100,3.75,
22,2,58,6,1,201,191,91,50,97,186,50,20,128,56,133,128,0,63,4,62,189,25,149,29,239,153,226,36,254,38,127,155,153,65,177,102,73,66,241,200,255,65,249,231,62,158,211,26,146,20,64,-101,3.75,
22,2,58,25,1,202,191,91,55,14,186,46,62,0,183,179,176,0,63,4,54,255,13,53,29,9,25,120,24,50,164,227,162,185,65,177,102,73,66,241,200,255,65,249,225,109,159,76,24,69,152,60,-99,3.50,
22,2,58,45,1,203,191,91,42,159,186,39,189,128,55,206,192,0,63,4,75,154,149,146,32,210,153,16,30,167,158,12,164,199,65,177,102,73,66,241,200,255,65,249,215,2,157,208,25,241,156,116,-99,4.00,
22,2,58,65,1,204,191,91,37,164,186,45,219,64,54,74,0,0,63,4,83,218,21,4,28,155,17,24,32,67,20,159,150,118,65,177,102,73,66,241,200,255,65,249,206,216,158,33,25,90,157,68,-98,3.50,
22,2,58,84,1,205,191,91,37,183,186,49,80,128,56,73,104,0,63,4,83,187,29,51,25,14,148,139,27,80,29,227,156,30,65,177,102,73,66,241,200,255,65,249,193,236,159,236,25,54,158,149,-97,3.75,
22,2,59,4,1,206,191,91,31,152,186,50,164,128,55,167,144,0,63,4,93,220,21,248,30,44,145,6,38,233,37,7,161,77,65,177,102,73,66,241,200,255,65,249,191,155,159,206,23,89,159,53,-98,3.75,
22,2,59,23,1,207,191,91,15,105,186,38,30,64,184,77,0,0,63,4,120,160,152,76,33,60,1,104,162,178,32,192,18,42,65,177,102,73,66,241,200,255,65,249,194,239,157,176,26,79,155,84,-98,4.00,
22,2,59,43,1,208,191,91,13,165,186,38,95,64,183,202,192,0,63,4,123,142,145,142,33,64,157,134,163,222,164,154,160,107,65,177,102,73,66,241,200,255,65,249,190,121,158,180,28,76,152,54,-99,4.00,
22,2,59,63,1,209,191,91,20,162,186,39,229,64,54,137,192,0,63,4,112,0,24,103,29,75,153,208,161,105,31,144,25,118,65,177,102,73,66,241,200,255,65,249,187,51,159,167,26,238,148,146,-100,4.00,
22,2,59,82,1,210,191,91,20,75,186,46,216,0,55,93,224,0,63,4,112,144,20,151,29,238,141,159,39,87,40,132,31,190,65,177,102,73,66,241,200,255,65,249,167,209,159,126,27,126,154,207,-97,4.00,
22,3,0,2,1,211,191,91,3,42,186,45,13,64,183,248,144,0,63,4,140,224,17,253,30,75,27,107,36,61,25,93,161,242,65,177,102,73,66,241,200,255,65,249,159,52,158,216,27,11,152,218,-99,3.75,
22,3,0,22,1,212,191,91,6,86,186,40,208,128,184,46,0,0,63,4,135,162,21,192,32,154,154,126,161,144,158,130,161,160,65,177,102,73,66,241,200,255,65,249,152,117,160,32,24,138,154,17,-97,4.00,
22,3,0,41,1,213,191,90,252,218,186,41,221,0,184,97,120,0,63,4,151,76,21,79,28,158,22,56,138,130,37,55,29,39,65,177,102,73,66,241,200,255,65,249,152,194,159,77,27,66,156,88,-97,3.75,
22,3,0,61,1,214,191,90,252,247,186,39,26,0,184,73,96,0,63,4,151,33,140,134,32,182,155,55,36,251,33,132,152,192,65,177,102,73,66,241,200,255,65,249,144,176,158,147,28,56,157,151,-98,3.75,
22,3,0,80,1,215,191,90,248,147,186,39,12,128,183,245,48,0,63,4,158,95,17,10,29,203,23,183,30,92,36,152,27,232,65,177,102,73,66,241,200,255,65,249,148,4,158,205,27,192,157,20,-98,3.75,
22,3,1,0,1,216,191,90,241,197,186,43,173,0,182,192,64,0,63,4,169,153,21,233,32,79,155,94,36,237,36,31,158,170,65,177,102,73,66,241,200,255,65,249,147,70,159,85,28,223,156,122,-97,3.75,
22,3,1,19,1,217,191,90,240,93,186,34,147,128,184,147,76,0,63,4,171,235,17,100,28,48,24,44,156,186,27,200,161,89,65,177,102,73,66,241,200,255,65,249,146,74,159,6,28,44,154,106,-99,4.00,
22,3,1,39,1,218,191,90,243,205,186,32,181,64,183,204,96,0,63,4,166,66,151,91,32,250,153,193,37,72,162,151,162,14,65,177,102,193,66,121,192,207,23,250,139,207,158,128,26,97,158,89,-96,-0.50,
22,3,1,59,1,219,191,90,243,240,186,34,114,192,183,138,112,0,63,4,166,7,136,0,28,108,24,1,35,100,40,101,19,32,65,177,102,73,66,241,200,255,65,249,124,145,159,201,28,88,160,16,-98,3.50,
22,3,1,78,1,220,191,90,229,48,186,36,109,0,184,51,168,0,63,4,190,90,23,1,32,108,156,244,33,225,159,68,157,3,65,177,102,73,66,241,200,255,65,249,119,137,159,208,26,137,159,11,-99,3.75,
22,3,1,98,1,221,191,90,228,6,186,27,57,128,183,134,128,0,63,4,192,74,24,13,29,231,151,119,158,51,32,27,27,3,65,177,102,73,66,241,200,255,65,249,117,198,160,109,28,5,156,211,-101,3.50,
22,3,2,18,1,222,191,90,231,202,186,24,39,64,183,216,160,0,63,4,186,15,22,31,31,31,155,226,167,159,34,143,153,90,65,177,102,73,66,241,200,255,65,249,122,230,160,139,28,235,20,86,-101,3.00,
22,3,2,37,1,223,191,90,213,35,186,32,238,192,55,5,0,0,63,4,216,209,20,134,30,56,155,80,33,56,164,254,164,95,65,177,102,73,66,241,200,255,65,249,128,94,159,11,29,239,58,236,-88,-5.75,
22,3,2,57,1,224,191,90,213,104,186,32,120,192,55,198,32,0,63,4,88,87,20,35,54,36,131,204,39,127,20,175,18,116,65,177,102,73,66,241,200,255,65,249,126,9,160,77,29,131,22,244,-97,0.25,
22,3,2,76,1,225,191,90,219,129,186,36,113,0,184,120,232,204,63,196,206,82,26,150,25,70,17,97,164,210,33,191,23,197,65,177,102,73,66,241,200,255,65,249,122,251,161,25,26,197,20,173,-96,3.75,
22,3,2,96,1,226,191,90,202,147,186,25,163,192,184,108,24,0,63,4,234,55,26,45,25,129,18,120,168,76,160,84,156,48,65,177,102,73,66,241,88,255,77,48,130,65,159,245,27,175,23,253,-91,0.00,
22,3,3,16,1,227,191,90,200,0,186,28,230,0,184,180,140,0,63,4,238,115,23,255,30,195,155,61,164,85,160,149,154,217,65,177,102,73,66,241,200,255,65,249,138,161,159,154,27,9,19,105,-99,3.50,
22,3,3,35,1,228,191,90,202,130,186,25,47,0,183,12,224,0,63,4,234,82,27,33,27,74,152,163,164,164,150,11,151,205,65,177,102,73,66,241,200,255,65,249,135,141,160,55,28,90,17,192,-97,3.75,
22,3,3,55,1,229,191,90,189,20,186,30,57,64,184,114,32,0,63,5,0,107,28,184,29,247,157,88,157,31,162,121,14,8,65,177,102,73,66,241,200,255,65,249,136,21,160,17,27,53,18,239,-97,3.50,
22,3,3,75,1,230,191,90,187,88,186,26,30,0,184,135,180,0,63,5,3,71,29,23,23,181,18,255,166,155,27,66,32,217,65,177,102,73,66,241,200,255,65,249,141,141,160,82,25,120,15,158,-97,3.75,
22,3,3,94,1,231,191,90,188,165,186,22,118,64,184,99,8,0,63,5,1,36,26,250,30,145,157,110,166,223,160,193,144,226,65,177,102,73,66,241,200,255,65,249,139,151,160,21,24,50,152,253,-98,3.00,
22,3,4,14,1,232,191,90,185,196,186,24,122,0,184,114,72,0,63,5,5,226,29,138,27,14,156,103,166,218,165,46,162,29,65,177,102,73,66,241,200,255,65,249,141,50,160,88,24,70,156,88,-98,3.25,
22,3,4,33,1,233,191,90,184,206,186,23,28,128,183,58,128,0,63,5,7,116,31,49,28,91,158,155,28,79,36,111,155,173,65,177,102,73,66,241,200,255,65,249,130,23,160,165,25,61,158,19,-97,3.25,
22,3,4,53,1,234,191,90,190,37,186,21,225,64,184,143,160,0,63,4,254,168,27,173,28,255,152,78,161,152,36,72,150,171,65,177,102,73,66,241,200,255,65,249,137,94,160,199,22,69,156,75,-98,3.00,
22,3,4,73,1,235,191,90,179,108,186,12,62,64,184,137,144,0,63,5,16,76,27,248,31,98,157,248,168,7,164,121,32,166,65,177,102,73,66,241,200,255,65,249,152,195,160,236,27,205,21,36,-98,2.75,
22,3,4,92,1,236,191,90,178,108,186,13,173,192,184,129,216,0,63,5,17,243,28,234,30,20,157,224,164,170,33,28,29,203,65,177,102,73,66,241,200,255,65,249,168,244,160,218,27,181,27,112,-97,2.75,
22,3,5,12,1,237,191,90,180,60,186,4,32,64,183,22,224,0,63,5,14,246,28,66,28,200,155,222,161,57,29,68,28,34,65,177,102,73,66,241,200,255,65,249,172,186,160,197,28,189,27,104,-97,3.25,
22,3,5,32,1,238,191,90,168,11,186,16,70,64,184,148,200,0,63,5,34,252,28,241,26,71,15,171,21,36,159,19,152,126,65,177,102,73,66,241,200,255,65,249,191,141,160,82,26,227,29,114,-97,3.00,
22,3,5,51,1,239,191,90,156,20,186,8,34,64,184,154,180,0,63,5,54,162,28,220,28,7,151,19,162,82,36,20,13,12,65,177,102,73,66,241,200,255,65,249,199,76,160,33,27,37,28,217,-97,3.25,
22,3,5,71,1,240,191,90,150,145,186,13,38,64,184,151,8,0,63,5,63,172,28,221,25,159,148,193,162,144,30,188,26,215,65,177,102,73,66,241,200,255,65,249,206,250,160,37,26,199,25,132,-98,2.75,
22,3,5,91,1,241,191,90,147,63,186,9,18,64,184,101,16,0,63,5,69,35,28,147,30,65,157,16,8,43,161,184,157,144,65,177,102,73,66,241,200,255,65,249,219,221,159,41,25,144,10,69,-98,2.75,
22,3,6,10,1,242,191,90,146,125,186,10,225,192,184,173,192,0,63,5,70,95,27,76,30,86,156,47,20,245,36,217,16,130,65,177,102,73,66,241,200,255,65,249,219,89,159,46,27,112,145,42,-97,3.00,
22,3,6,30,1,243,191,90,144,45,186,8,134,64,182,97,0,0,63,5,74,38,29,32,20,212,21,168,40,94,34,204,159,222,65,177,102,73,66,241,200,255,65,249,229,4,159,13,28,66,25,66,-97,3.00,
22,3,6,49,1,244,191,90,125,51,186,10,111,128,184,181,68,0,63,5,105,65,28,230,30,252,157,165,160,52,26,92,152,131,65,177,102,73,66,241,200,255,65,249,235,211,157,220,26,241,24,101,-98,3.00,
22,3,6,69,1,245,191,90,119,216,186,5,234,128,184,73,144,0,63,5,114,10,29,228,30,2,158,217,23,54,33,8,14,20,65,177,102,73,66,241,200,255,65,249,248,36,157,196,26,36,25,26,-97,3.25,
22,3,6,89,1,246,191,90,118,162,186,5,67,64,184,11,168,0,63,5,116,3,28,164,29,66,155,254,35,4,27,179,148,84,65,177,102,73,66,241,200,255,65,249,251,42,156,207,26,31,7,69,-96,2.75,
22,3,7,8,1,247,191,90,116,234,186,6,97,0,184,107,120,0,63,5,118,211,26,1,29,20,152,60,39,97,20,59,163,91,65,177,102,73,66,241,200,255,65,249,241,238,156,28,27,160,150,101,-98,2.50,
22,3,7,28,1,248,191,90,123,98,186,1,106,192,184,163,96,0,63,5,108,61,28,118,30,134,157,192,163,36,36,100,27,142,65,177,102,73,66,241,200,255,65,249,244,43,157,110,28,69,156,184,-97,3.00,
22,3,7,48,1,249,191,90,117,210,186,2,11,192,184,96,24,0,63,5,117,83,28,211,26,155,152,182,33,165,23,126,160,221,65,177,102,73,66,241,200,255,65,250,3,226,157,161,25,224,20,170,-97,3.25,
22,3,7,67,1,250,191,90,101,9,185,254,191,128,184,213,80,0,63,5,144,206,26,73,31,92,157,159,16,153,34,166,149,95,65,177,102,73,66,241,200,255,65,250,23,231,154,215,26,228,28,46,-97,3.50,
22,3,7,87,1,251,191,90,101,109,185,246,34,0,184,162,40,0,63,5,144,40,26,17,25,89,13,154,160,0,19,93,161,64,65,177,102,73,66,241,200,255,65,250,23,69,154,229,27,185,26,211,-98,3.75,
22,3,8,6,1,252,191,90,105,55,185,253,8,0,184,153,24,0,63,5,137,246,29,44,26,57,148,72,160,194,150,87,156,164,65,177,102,73,66,241,200,255,65,250,37,219,156,213,27,59,28,23,-98,3.50,
22,3,8,26,1,253,191,90,117,108,186,2,41,64,184,147,100,0,63,5,117,251,30,24,20,10,143,223,33,51,34,105,156,151,65,177,102,73,66,241,200,255,65,250,49,0,158,217,26,247,25,214,-98,3.25,
22,3,8,45,1,254,191,90,99,22,185,250,37,0,184,165,12,0,63,5,148,0,27,172,29,136,154,108,161,39,19,16,157,99,65,177,102,73,66,241,200,255,65,250,63,45,157,27,26,20,150,135,-97,3.50,
22,3,8,65,1,255,191,90,104,228,185,242,145,0,184,141,164,0,63,5,138,126,25,254,28,227,146,249,161,44,158,237,162,203,65,177,102,73,66,241,200,255,65,250,82,56,157,195,24,225,151,24,-98,3.50,
22,3,8,85,2,0,191,90,105,14,185,237,42,0,183,237,112,0,63,5,138,60,28,91,22,163,4,242,152,221,27,218,159,30,65,177,102,73,66,241,200,255,65,250,87,117,158,9,27,96,151,214,-98,3.75,
22,3,9,4,2,1,191,90,111,227,185,246,17,0,184,180,144,0,63,5,127,16,26,216,30,27,154,73,162,55,35,204,153,218,65,177,102,73,66,241,200,255,65,250,103,202,158,164,28,112,151,125,-97,3.25,
22,3,9,24,2,2,191,90,104,185,185,232,220,0,184,91,88,0,63,5,138,199,27,103,27,203,146,20,165,58,31,129,153,203,65,177,102,73,66,241,200,255,65,250,116,237,158,134,28,234,19,189,-97,3.25,
22,3,9,43,2,3,191,90,106,14,185,241,216,128,184,135,188,0,63,5,136,152,27,142,28,82,13,35,25,94,158,124,164,24,65,177,102,73,66,241,200,255,65,250,134,184,159,49,28,120,23,104,-98,2.75,
22,3,9,63,2,4,191,90,83,249,185,224,113,0,184,223,124,0,63,5,172,176,23,187,28,145,21,249,163,238,35,89,19,138,65,177,102,73,66,241,200,255,65,250,154,229,156,142,28,30,20,162,-97,3.50,
22,3,9,83,2,5,191,90,81,84,185,233,8,128,184,209,208,0,63,5,177,2,25,55,30,26,155,28,20,147,160,179,162,20,65,177,102,73,66,241,200,255,65,250,145,197,157,37,28,97,136,124,-98,3.25,
22,3,10,2,2,6,191,90,83,191,185,228,168,128,184,120,88,0,63,5,173,19,27,124,30,28,155,30,149,213,29,64,161,210,65,177,102,73,66,241,200,255,65,250,159,90,157,154,28,165,9,252,-97,3.25,
22,3,10,22,2,7,191,90,78,30,185,230,58,128,184,204,176,0,63,5,182,64,25,77,31,48,156,78,25,45,37,72,31,154,65,177,102,73,66,241,200,255,65,250,180,155,156,192,29,146,12,250,-97,3.25,
22,3,10,42,2,8,191,90,78,91,185,205,26,128,184,143,36,0,63,5,181,221,18,145,29,139,18,227,154,115,157,176,158,228,65,177,102,73,66,241,200,255,65,250,190,137,155,251,28,29,16,190,-97,2.75,
22,3,10,61,2,9,191,90,76,81,185,211,28,0,184,185,76,0,63,5,185,48,22,22,30,97,145,234,160,198,26,46,157,108,65,177,102,73,66,241,200,255,65,250,185,91,156,41,28,214,145,53,-97,2.75,
22,3,10,81,2,10,191,90,73,125,185,210,87,128,184,82,40,0,63,5,189,206,25,238,24,75,19,27,37,25,35,123,159,240,65,177,102,72,66,241,200,255,65,250,192,188,156,60,29,240,152,204,-97,3.25,
22,3,11,0,2,11,191,90,66,228,185,208,227,128,184,229,220,0,63,5,200,151,25,99,32,19,156,253,33,134,154,31,158,123,65,177,102,72,66,241,200,255,65,250,202,93,156,116,28,108,156,99,-97,3.25,
22,3,11,20,2,12,191,90,63,4,185,198,241,0,185,6,64,0,63,5,206,230,27,3,25,237,19,252,160,165,36,147,34,70,65,177,102,72,66,241,200,255,65,250,215,18,156,55,28,224,19,85,-97,3.50,
22,3,11,40,2,13,191,90,66,196,185,196,151,0,184,227,148,0,63,5,200,200,24,14,32,7,156,109,160,13,158,183,136,120,65,177,102,72,66,241,200,255,65,250,233,110,156,5,28,109,7,148,-98,3.50,
22,3,11,59,2,14,191,90,65,243,185,197,109,0,184,182,36,0,63,5,202,27,26,60,28,130,150,11,37,253,158,53,164,214,65,177,102,72,66,241,200,255,65,250,228,189,156,29,29,144,147,45,-97,3.75,
22,3,11,79,2,15,191,90,51,251,185,196,182,0,184,235,176,0,63,5,224,224,25,2,31,117,154,176,35,195,39,33,24,63,65,177,102,72,66,241,200,255,65,250,243,211,153,99,29,226,21,149,-97,4.00,
22,3,11,98,2,16,191,90,67,105,185,206,103,0,184,232,4,0,63,5,199,184,25,248,27,73,14,92,37,133,26,238,160,234,65,177,102,72,66,241,200,255,65,251,4,1,156,47,30,46,27,49,-98,4.25,
22,3,12,18,2,17,191,90,59,42,185,194,0,0,184,71,8,0,63,5,213,45,25,198,29,123,138,148,37,249,150,214,155,248,65,177,102,72,66,241,200,255,65,251,12,215,154,32,29,74,27,90,-98,4.00,
22,3,12,37,2,18,191,90,55,250,185,208,130,128,184,231,20,0,63,5,218,96,25,202,28,186,148,97,31,229,35,214,149,155,65,177,102,72,66,241,200,255,65,251,22,83,154,104,28,186,22,234,-98,4.00,
22,3,12,57,2,19,191,90,55,140,185,205,167,128,184,199,228,0,63,5,219,19,25,254,25,29,11,84,37,18,160,11,161,143,65,177,102,72,66,241,200,255,65,251,19,10,154,20,29,132,17,27,-98,3.50,
22,3,12,77,2,20,191,90,33,214,185,209,176,128,184,233,104,0,63,5,254,115,14,84,30,242,152,78,40,161,37,31,18,60,65,177,102,72,66,241,200,255,65,251,26,118,129,246,28,131,153,25,-97,3.50,
22,3,12,96,2,21,191,90,41,14,185,211,71,0,185,3,162,0,63,5,242,177,20,193,30,241,153,115,143,95,36,13,153,146,65,177,102,72,66,241,200,255,65,251,31,99,148,217,29,148,155,161,-97,3.75,
22,3,13,16,2,22,191,90,53,58,185,204,66,128,184,255,52,0,63,5,222,216,9,158,31,55,147,177,36,58,167,53,160,186,65,177,102,72,66,241,200,255,65,251,40,76,151,95,27,241,156,115,-97,3.25,
22,3,13,35,2,23,191,90,53,68,185,204,104,0,185,0,152,0,63,5,222,201,17,253,29,96,130,145,29,178,37,150,25,206,65,177,102,72,66,241,200,255,65,251,32,64,152,39,29,119,157,134,-97,4.00,
22,3,13,55,2,24,191,90,41,108,185,206,70,0,184,232,24,0,63,5,242,25,144,36,31,226,144,113,19,48,156,45,161,110,65,177,102,72,66,241,200,255,65,251,41,218,144,148,29,45,156,239,-97,3.75,
22,3,13,75,2,25,191,90,42,163,185,206,0,0,184,235,52,0,63,5,240,30,20,34,28,59,23,128,160,150,165,80,163,108,65,177,102,72,66,241,200,255,65,251,52,228,150,44,29,199,150,153,-98,4.00,
22,3,13,94,2,26,191,90,36,101,185,200,190,0,184,249,16,0,63,5,250,69,13,244,32,39,157,76,24,208,30,96,162,196,65,177,102,72,66,241,200,255,65,251,71,50,150,86,30,37,25,39,-97,4.25,
22,3,14,14,2,27,191,90,48,241,185,200,229,128,184,215,44,0,63,5,229,217,21,235,26,170,15,153,30,206,162,184,156,22,65,177,102,72,66,241,200,255,65,251,82,165,153,6,29,247,28,16,-97,4.00,
22,3,14,33,2,28,191,90,48,218,185,201,174,0,185,46,72,0,63,5,229,248,0,86,32,162,156,166,165,121,153,248,32,43,65,177,102,72,66,241,200,255,65,251,68,38,152,107,29,189,23,53,-98,3.50,
22,3,14,53,2,29,191,90,42,141,185,206,230,0,184,248,100,0,63,5,240,65,24,88,28,211,148,105,161,69,30,112,158,151,65,177,102,72,66,241,200,255,65,251,79,218,152,5,30,8,28,89,-98,3.75,
22,3,14,73,2,30,191,90,38,146,185,208,1,128,184,190,28,0,63,5,246,192,26,79,31,127,157,64,24,86,155,78,153,74,65,177,102,72,66,241,200,255,65,251,83,226,154,75,28,202,23,222,-97,4.00,
22,3,14,92,2,31,191,90,40,179,185,199,82,128,184,227,152,0,63,5,243,68,25,65,26,87,21,118,162,124,164,158,162,4,65,177,102,72,66,241,200,255,65,251,89,119,153,158,29,144,21,46,-97,3.50,
22,3,15,12,2,32,191,90,40,9,185,204,133,0,184,218,232,0,63,5,244,88,25,95,30,42,152,119,158,143,36,198,34,67,65,177,102,72,66,241,200,255,65,251,71,238,152,249,31,11,142,171,-97,3.50,
22,3,15,32,2,33,191,90,28,223,185,205,18,0,184,207,36,0,63,6,6,136,23,44,27,111,131,189,161,64,29,140,158,115,65,177,102,72,66,241,200,255,65,251,81,62,151,11,30,2,15,252,-98,3.75,
22,3,15,51,2,34,191,90,25,199,185,214,41,128,184,224,168,0,63,6,11,146,24,91,28,145,2,116,24,121,157,248,163,46,65,177,102,72,66,241,200,255,65,251,94,146,150,212,28,243,8,236,-98,4.00,
