UTC	Pack_count	q0	q1	q2	q3	RollRate	PitchRate	YawRate	Roll	Pitch	Yaw	FreeAccX	FreeAccY	FreeAccZ	Lat	Long	Height	VelX	VelY	VelZ	LoRaRSSI	LoRaSNR
21:04:45:49	0	-0.99664	0.0034777	0.0010572	0.081774	0.096436	-0.026917	0.062286	-0.38727	-0.15333	-9.3806	1.8672	0.98975	-0.56738	24.80716	121.0242	59.67811	-0.0129318	0.00354576	59.6781	-55	5.5
21:04:45:80	0	-0.99664	0.0030334	0.0014762	0.081894	-0.040863	-0.016434	-0.0087051	-0.33259	-0.19706	-9.3944	0.17749	1.4795	-0.81152	24.80716	121.0242	59.70066	0.00150967	0.00762558	59.7007	-52	6.75
21:04:46:11	0	-0.99661	0.00076832	0.0053448	0.082084	0.072754	0.0084076	-0.0079041	-0.037473	-0.61763	-9.4167	-0.17944	-1.1211	1.7422	24.80716	121.0242	59.70511	0.0111084	-0.0141525	59.7051	-54	6
21:04:46:42	0	-0.99664	0.00074055	0.0061545	0.081676	0.036407	0.0066986	0.0031395	-0.026975	-0.70984	-9.3698	-0.16626	0.0032806	-1.0547	24.80716	121.0242	59.70671	0.00955963	0.0146561	59.7067	-51	6.5
21:04:46:73	0	-0.99658	0.00044917	0.0066336	0.082364	0.010513	-0.0039787	-0.0093155	0.011315	-0.76182	-9.4492	0.27808	-1.1895	0.41064	24.80716	121.0242	59.75703	0.0326843	0.0117798	59.757	-53	6.25
21:04:47:05	0	-0.9966	0.0014075	0.004057	0.082252	0.042877	0.00021696	-0.0089188	-0.12251	-0.47659	-9.4356	-0.58545	0.72852	-0.80127	24.80716	121.0242	59.76703	0.0442505	0.0156555	59.767	-52	6.5
21:04:47:35	0	-0.99657	0.0017048	0.002783	0.082692	0.053894	0.020493	-0.017914	-0.16831	-0.33397	-9.4862	0.05661	-1.2129	1.2334	24.80716	121.0242	59.75313	0.0127335	-0.000159502	59.7531	-50	6.5
21:04:47:67	0	-0.99656	0.0015823	0.0034349	0.082753	0.01796	0.014366	-0.00043797	-0.14813	-0.40727	-9.4931	0.87061	1.0615	-1.2031	24.80716	121.0242	59.74393	0.0393372	0.0275726	59.7439	-51	6.25
21:04:47:98	0	-0.99656	0.0025211	0.0012043	0.082824	0.047638	0.019302	0.00086403	-0.27647	-0.16146	-9.5014	0.77197	0.63818	-0.81494	24.80716	121.0242	59.78097	0.0249634	0.00919342	59.781	-57	6.5
21:04:48:29	0	-0.99655	0.0027045	0.0024372	0.082914	-0.055756	-0.039673	-0.0013056	-0.28569	-0.30402	-9.5115	0.02092	-0.0073051	-0.053986	24.80716	121.0242	59.79305	0.0108643	0.0132141	59.793	-48	6
21:04:48:60	0	-0.99652	0.0034301	0.0012909	0.083277	0.0044708	0.037842	-0.0099258	-0.37938	-0.18015	-9.5533	0.2052	-0.54395	0.96533	24.80716	121.0242	59.79419	0.0421448	0.0096283	59.7942	-50	6.75
21:04:48:91	0	-0.99653	0.0021472	0.0027628	0.083172	0.021576	0.012337	0.013786	-0.21887	-0.33596	-9.5413	-0.54541	0.45483	-0.40039	24.80716	121.0242	59.79997	-0.000814438	0.00666046	59.8	-57	6.75
21:04:49:22	0	-0.9965	0.0012591	0.0071685	0.08323	-0.076233	-0.0058403	-0.0015411	-0.075415	-0.83062	-9.5482	0.31494	0.89307	-1.9082	24.80716	121.0242	59.8246	0.0187836	0.000213742	59.8246	-48	6
21:04:49:53	0	-0.99649	-0.00040979	0.0050485	0.083557	-0.025711	0.0289	0.0065613	0.095137	-0.57257	-9.5867	-0.5752	-1.2041	0.21643	24.80716	121.0242	59.82732	0.0621338	0.00593567	59.8273	-47	6
21:04:49:84	0	-0.99652	0.0027396	0.0020525	0.083329	-0.029312	0.04126	0.0014133	-0.29325	-0.26055	-9.5593	-0.46826	0.45874	0.12744	24.80716	121.0242	59.80685	0.0563965	0.0114212	59.8069	-49	6
21:04:50:16	0	-0.9965	0.0031377	0.0017502	0.083548	-0.0081711	-0.0020313	-0.0065269	-0.34154	-0.22989	-9.5844	-0.11157	1.2852	-1.3887	24.80716	121.0242	59.80357	0.047699	0.0139694	59.8036	-51	6.5
21:04:50:47	0	-0.9965	0.0032512	0.0011163	0.083492	-0.010155	0.0035534	-0.0040321	-0.36057	-0.15858	-9.5782	-0.32666	-1.3008	-1.1182	24.80716	121.0242	59.83028	0.0307159	-0.00662613	59.8303	-53	6.25
21:04:50:78	0	-0.99648	0.0017848	0.0040089	0.083674	-0.025482	-0.0069275	-0.0050316	-0.16537	-0.47489	-9.599	0.43921	-0.42773	0.42822	24.80716	121.0242	59.82963	0.0389404	-0.00885773	59.8296	-52	6.5
21:04:51:09	0	-0.99651	0.0017329	0.0043257	0.083343	-0.033875	-0.021149	0.0018482	-0.15657	-0.51052	-9.5609	-0.23511	-1.373	1.0723	24.80716	121.0242	59.82508	0.043457	-0.0096817	59.8251	-57	6.75
21:04:51:40	0	-0.99647	-0.00092435	0.0073256	0.083572	-0.012749	-0.019913	0.0017967	0.17572	-0.82766	-9.5893	0.38525	0.23303	-0.8125	24.80716	121.0242	59.83917	0.0237579	-0.00538635	59.8392	-49	6.25
21:04:51:71	0	-0.99642	-0.0016662	0.009406	0.083978	-0.039856	0.01046	-0.017883	0.28082	-1.058	-9.6375	0.058685	-0.6748	-0.82568	24.80716	121.0242	59.8831	0.0386047	-0.00791168	59.8831	-49	6
21:04:52:02	0	-0.99642	-0.002074	0.0096451	0.083984	0.030045	0.0085831	-0.0071869	0.32969	-1.0814	-9.6388	-0.14478	-0.18774	1.7695	24.80716	121.0242	59.90435	0.0376282	-0.0135574	59.9044	-48	6
21:04:52:33	0	-0.99638	-0.0032071	0.010621	0.084236	-0.00040293	0.032379	0.0038338	0.46881	-1.1818	-9.6696	-0.49365	0.10699	-0.42456	24.80716	121.0242	59.90457	0.0393982	-0.00529099	59.9046	-48	5.75
21:04:52:64	0	-0.99637	-0.002772	0.010816	0.084374	0.024307	-0.013702	-0.0025444	0.42117	-1.2082	-9.6851	-0.28516	-0.85254	-0.61133	24.80716	121.0242	59.89154	0.0491943	-0.0125885	59.8915	-48	6.25
21:04:52:96	0	-0.99636	-0.0029402	0.010551	0.084529	0.035309	0.031311	0.012161	0.43799	-1.1762	-9.7029	-0.2876	0.521	-0.32373	24.80716	121.0242	59.91842	0.0450134	-0.00469589	59.9184	-49	6
21:04:53:26	0	-0.99635	-0.0027186	0.010723	0.084653	-0.020782	-0.026718	0.0092697	0.4145	-1.198	-9.7171	0.58398	-0.68848	0.91846	24.80716	121.0242	59.91267	0.0553894	-0.0170441	59.9127	-51	6.5
21:04:53:58	0	-0.99635	-0.0026171	0.0095475	0.084836	0.020859	0.043945	0.017242	0.39169	-1.0647	-9.7373	-0.14282	0.82568	0.085693	24.80716	121.0242	59.92215	0.06427	0.00413132	59.9221	-52	6.25
21:04:53:89	0	-0.99634	-0.0018725	0.0096738	0.084946	-0.02153	0.0073433	-0.011421	0.308	-1.0863	-9.7492	-0.19824	0.47998	-1.9854	24.80716	121.0242	59.92448	0.0474243	-0.0164642	59.9245	-53	6.25
21:04:54:20	0	-0.99633	-0.002356	0.0095629	0.08508	0.023773	0.018707	-0.0074348	0.36228	-1.0689	-9.7651	-0.64355	-1.8438	0.41992	24.80716	121.0242	59.94996	0.0526123	-0.0187073	59.95	-61	5.75
21:04:54:51	0	-0.9963	-0.0017037	0.0091569	0.085415	0.027222	0.0059013	-0.0053635	0.28418	-1.0288	-9.8028	0.37012	-0.15002	0.35278	24.80716	121.0242	59.96046	0.071167	-0.00980377	59.9605	-54	5.75
21:04:54:82	0	-0.99631	-0.0022002	0.0090122	0.085348	0.03009	0.012398	-0.0063591	0.33939	-1.0074	-9.7954	-0.099548	-0.30273	1.75	24.80716	121.0242	59.96297	0.0597229	-0.0201263	59.963	-50	6.5
21:04:55:13	0	-0.9963	-0.0018935	0.009625	0.08541	-0.014801	0.013519	0.010551	0.31043	-1.0804	-9.8025	-0.33496	0.4165	0.031952	24.80716	121.0242	59.95687	0.0579529	-0.0135956	59.9569	-49	6.25
21:04:55:44	0	-0.99628	-0.0017436	0.0092945	0.085618	-0.0087585	-0.046997	0.015511	0.2903	-1.0441	-9.8262	0.24121	0.095642	-0.068726	24.80716	121.0242	59.99215	0.0684814	-0.0118408	59.9922	-48	5.75
21:04:55:75	0	-0.99629	-0.0015747	0.0084176	0.085634	0.033295	0.034027	0.011246	0.26242	-0.9456	-9.8275	0.14551	0.94727	-0.51318	24.80716	121.0242	60.00895	0.0715942	-0.0013752	60.009	-48	6.25
21:04:56:07	0	-0.99628	-0.0011816	0.0082832	0.085754	0.026978	-0.024704	-0.0016022	0.21632	-0.93408	-9.8408	-0.59131	-0.79639	-0.96143	24.80716	121.0242	60.01801	0.0665894	-0.0215149	60.018	-50	6.5
21:04:56:38	0	-0.99627	-0.0015871	0.0084884	0.085913	0.041138	0.030991	-0.0010538	0.2648	-0.95348	-9.8597	0.24744	0.24268	-1.0645	24.80716	121.0242	60.02419	0.0635376	-0.0115051	60.0242	-52	6.75
21:04:56:69	0	-0.99623	-0.0023541	0.0091699	0.086241	-0.028976	0.003397	-0.0053558	0.35942	-1.0236	-9.8985	0.090271	0.13342	-0.52881	24.80716	121.0242	60.05204	0.0667114	-0.0180969	60.052	-51	6.5
21:04:57:00	0	-0.99622	-0.0023068	0.0093865	0.086318	0.016495	0.011444	-0.0032845	0.35625	-1.0488	-9.9074	-0.70166	-1.1465	0.95166	24.80716	121.0242	60.05408	0.0595398	-0.0208282	60.0541	-52	5.75
21:04:57:31	0	-0.9962	-0.002228	0.010116	0.086488	-0.036957	-0.0018358	-0.013222	0.35466	-1.1328	-9.9272	-0.0045547	0.82861	-1.5576	24.80716	121.0242	60.06216	0.0672607	-0.0133896	60.0622	-53	6
21:04:57:62	0	-0.9962	-0.0022123	0.0093969	0.086578	-0.022842	0.016129	0.0033684	0.34584	-1.0508	-9.9372	0.54248	0.33081	-1.1797	24.80716	121.0242	60.07578	0.0717773	-0.0105133	60.0758	-52	6.5
21:04:57:93	0	-0.99618	-0.0018961	0.009421	0.086746	-0.025574	0.0090561	-0.011536	0.31015	-1.0567	-9.9562	-0.56641	0.52344	-1.1553	24.80716	121.0242	60.08688	0.0679321	-0.0128479	60.0869	-53	5.75
21:04:58:24	0	-0.99618	-0.0019071	0.008293	0.086905	0.018173	0.037292	-0.0014858	0.30033	-0.92773	-9.974	0.74951	0.33887	-1.1875	24.80716	121.0242	60.11498	0.0743408	-0.0139847	60.115	-53	6
21:04:58:55	0	-0.99617	-0.0021533	0.0092307	0.086881	-0.042206	0.00072956	-0.0045433	0.33776	-1.0323	-9.9719	0.13708	0.12433	-1.3076	24.80716	121.0242	60.12691	0.0640259	-0.0269318	60.1269	-51	6.75
21:04:58:86	0	-0.99614	-0.0028502	0.010141	0.08711	0.013367	-0.0070496	0.0090942	0.42667	-1.1292	-9.9996	-0.6333	-0.50244	1.1367	24.80716	121.0242	60.107	0.0566406	-0.0189819	60.107	-50	5.5
21:04:59:17	0	-0.99614	-0.0036483	0.011067	0.087008	-0.065918	-0.0001229	-0.010643	0.52693	-1.227	-9.9894	0.2854	0.15369	-0.40869	24.80716	121.0242	60.11676	0.0807495	-0.012413	60.1168	-49	5.75
21:04:59:48	0	-0.99615	-0.0025417	0.0089115	0.087167	0.00048542	0.024307	0.0052071	0.379208	-0.991915	-10.0051	0.31982	0.0019474	-0.80371	24.80716	121.0242	60.12685	0.0750732	-0.0163879	60.1269	-49	6.25
21:04:59:80	0	-0.99616	-0.00085223	0.0077111	0.087226	-0.050934	0.024765	-0.015884	0.174379	-0.871745	-10.0098	-0.40283	0.46924	-1.1279	24.80716	121.0242	60.11149	0.0633545	-0.0168457	60.1115	-49	6.25
21:05:00:10	0	-0.99615	-0.00059726	0.0065282	0.087445	-0.042603	0.01062	-0.0057983	0.133604	-0.73923	-10.0344	0.19385	-0.61572	-1.3457	24.80716	121.0242	60.11833	0.0561523	-0.0205688	60.1183	-48	6.5
21:05:00:42	0	-0.99612	-0.00077354	0.0067835	0.087721	0.0079498	-0.0028133	-0.0069237	0.1565	-0.766563	-10.0663	0.40698	-0.28638	0.17773	24.80716	121.0242	60.12511	0.0582581	-0.0223846	60.1251	-48	6.75
21:05:00:73	0	-0.99612	-0.0011094	0.0067774	0.087749	0.040039	-0.0018263	0.0070381	0.194801	-0.762481	-10.0698	-0.65674	-0.54883	1.2803	24.80716	121.0242	60.15753	0.0446167	-0.0261993	60.1575	-49	6.25
21:05:01:04	0	-0.9961	-0.0016446	0.0080094	0.087871	-0.036011	-0.0062218	-0.005825	0.268409	-0.897704	-10.0847	0.34399	0.13501	0.177	24.80716	121.0242	60.16195	0.0472717	-0.0234528	60.1619	-49	6.25
21:05:01:35	0	-0.9961	-0.0015426	0.0073982	0.087898	-0.043915	0.0049248	0.011749	0.250621	-0.828963	-10.0875	-0.080078	-0.10272	-0.66357	24.80716	121.0242	60.17023	0.055542	-0.0198059	60.1702	-48	6.25
21:05:01:66	0	-0.99609	-0.00046488	0.0069938	0.088089	0.012871	0.018311	-0.015823	0.123672	-0.793623	-10.1085	-0.16602	-1.291	0.16663	24.80716	121.0242	60.16417	0.0553894	-0.0238037	60.1642	-49	7.5
21:05:01:97	0	-0.99608	-0.0002764	0.0061343	0.088253	0.040192	0.025574	-0.014938	0.0935925	-0.697402	-10.127	-0.60107	-0.95654	1.2764	24.80716	121.0242	60.18975	0.0432739	-0.0232391	60.1898	-50	6.25
21:05:02:28	0	-0.99606	-0.0001201	0.0063664	0.088429	0.047333	-0.0087433	-0.0061874	0.0782269	-0.725465	-10.1472	0.45874	-0.60547	0.77588	24.80716	121.0242	60.18047	0.0427551	-0.028244	60.1805	-50	6.5
21:05:02:59	0	-0.99606	-0.00070058	0.0065913	0.088464	0.0055351	-0.0077896	0.0073624	0.146794	-0.745253	-10.1516	-0.12122	-0.27588	-0.13159	24.80716	121.0242	60.19398	0.04599	-0.0242004	60.194	-48	6.5
21:05:02:91	0	-0.99605	-0.00033592	0.0068497	0.08855	0.031494	-0.01194	-0.0059738	0.107856	-0.778435	-10.1613	-0.60107	0.86084	-1.166	24.80716	121.0242	60.18864	0.0433655	-0.0196991	60.1886	-47	6
21:05:03:22	0	-0.99603	-0.00028342	0.0063886	0.088808	-0.0092316	-0.0011129	0.00073195	0.0973711	-0.726307	-10.1909	0.78564	0.24255	-0.74463	24.80716	121.0242	60.21346	0.0499573	-0.013382	60.2135	-47	6.25
21:05:03:53	0	-0.99603	-0.000791	0.0073782	0.088687	-0.026352	-0.0048714	-0.008873	0.165283	-0.834113	-10.1776	0.31616	-0.34473	0.16321	24.80716	121.0242	60.20644	0.0407715	-0.0205688	60.2064	-53	6.25
21:05:03:84	0	-0.99603	-0.0011311	0.0074164	0.088755	-0.015388	-0.0074272	0.0077705	0.204547	-0.835003	-10.1858	0.085205	-0.16077	-0.71143	24.80716	121.0242	60.19796	0.0373535	-0.0214081	60.198	-53	6.25
21:05:04:15	0	-0.99601	-0.0012183	0.007408	0.088876	-0.055542	0.021881	-0.010971	0.214524	-0.833134	-10.1998	-0.2854	0.77832	-0.8916	24.80716	121.0242	60.19627	0.0509033	-0.00732422	60.1963	-52	6.5
21:05:04:46	0	-0.996	-8.98E-05	0.0047888	0.089208	-0.013237	0.041748	-0.0079575	0.0592055	-0.545657	-10.2365	0.55762	-0.20618	-1.2939	24.80716	121.0242	60.2114	0.0523071	-0.00442886	60.2114	-52	6.75
21:05:04:77	0	-0.99599	-2.01E-05	0.0048891	0.089324	-0.037964	-0.02478	0.0069046	0.0523396	-0.557801	-10.2498	0.76318	-0.71191	0.72412	24.80716	121.0242	60.21583	0.0322266	-0.0253754	60.2158	-51	6.5
21:05:05:08	0	-0.99597	-0.00037215	0.0061042	0.089528	0.0093231	-0.0029144	0.016281	0.105105	-0.692868	-10.2738	-0.41016	0.87256	0.29321	24.80716	121.0242	60.21189	0.0316772	-0.0133667	60.2119	-49	5.75
21:05:05:39	0	-0.99597	-0.00036962	0.0056334	0.089564	0.018311	0.004364	0.0093155	0.100008	-0.639155	-10.2778	-0.5332	-0.4248	1.0488	24.80716	121.0242	60.21204	0.0353699	-0.011795	60.212	-48	6
21:05:05:70	0	-0.99596	0.00045369	0.0052851	0.089653	0.037659	-0.026199	0.002512	0.00251818	-0.607857	-10.2874	-0.48267	-0.53662	-0.7627	24.80716	121.0242	60.21783	0.0328979	-0.0113449	60.2178	-50	6.25
21:05:06:01	0	-0.99594	0.00067269	0.0045698	0.089902	0.023758	0.0050201	0.012955	-0.0296953	-0.528467	-10.316	-0.33691	0.1875	0.31519	24.80716	121.0242	60.2166	0.0332947	-0.00609207	60.2166	-51	6.5
21:05:06:33	0	-0.99594	0.00041863	0.0041401	0.089899	0.017853	-0.0014772	0.011086	-0.00512684	-0.47681	-10.3157	-0.65625	-0.57861	1.0625	24.80716	121.0242	60.21783	0.0262909	-0.00318336	60.2178	-49	6
21:05:06:64	0	-0.99593	0.00030993	0.0048151	0.089972	-0.049835	0.00066519	-0.010399	0.0142738	-0.552728	-10.3242	0.4436	0.29858	0.044739	24.80716	121.0242	60.21978	0.0319214	-0.0023365	60.2198	-49	5.75
21:05:06:95	0	-0.99593	0.00045702	0.0051995	0.089996	-0.015533	0.024353	0.0066681	0.00146405	-0.598111	-10.3269	-0.45703	0.63818	-0.45679	24.80716	121.0242	60.24421	0.0257111	0.00381851	60.2442	-49	6.25
21:05:07:26	0	-0.99591	0.00098955	0.0044499	0.090183	0.001708	0.024734	-0.0031796	-0.0669473	-0.518067	-10.3481	-0.010918	0.20898	1.6143	24.80716	121.0242	60.24433	0.0361328	0.00198174	60.2443	-47	6.5
21:05:07:57	0	-0.99591	0.0012431	0.0036425	0.090259	-0.036774	0.0088043	-0.010338	-0.104192	-0.428557	-10.3567	0.34448	-0.66895	0.52783	24.80716	121.0242	60.25173	0.0396118	0.00198936	60.2517	-47	6.25
21:05:07:88	0	-0.99591	0.0023028	0.0020368	0.090282	-0.0038166	0.024048	0.012589	-0.241734	-0.256268	-10.3592	0.63916	0.9502	-0.87256	24.80716	121.0242	60.25281	0.0443726	0.0142365	60.2528	-47	6.25
21:05:08:19	0	-0.99589	0.0025795	0.0016057	0.090526	-0.020004	-0.013054	0.0056038	-0.277726	-0.209999	-10.3873	0.65527	0.28564	1.8281	24.80716	121.0242	60.26688	0.0225067	0.000136614	60.2669	-48	6.25
21:05:08:50	0	-0.99587	0.0014763	0.0040809	0.090722	-0.0075798	-0.013145	-0.014748	-0.126046	-0.481056	-10.4099	0.36499	-1.0264	0.40649	24.80716	121.0242	60.28033	0.016571	-0.0117569	60.2803	-47	6
21:05:08:82	0	-0.99587	-0.00036381	0.005976	0.090644	-0.020813	-0.015747	0.0024509	0.103597	-0.67821	-10.4021	0.1405	-0.26709	-0.79541	24.80716	121.0242	60.27198	0.0233459	0.00119305	60.272	-47	6.25
21:05:09:13	0	-0.99585	-0.00047814	0.0067455	0.090751	-0.049835	0.011246	-0.0076675	0.124724	-0.764822	-10.4148	-0.52148	0.49072	-1.0088	24.80716	121.0242	60.25705	0.032959	0.0079422	60.257	-47	6.25
21:05:09:44	0	-0.99584	-0.00069855	0.0062346	0.09095	0.038696	-0.0074654	0.0131	0.144704	-0.704199	-10.4376	-0.48853	-0.39478	1.0059	24.80716	121.0242	60.2556	0.0316162	0.00550461	60.2556	-46	6.5
21:05:09:75	0	-0.99583	-0.00029231	0.0068668	0.091001	0.036957	-0.025055	0.0018606	0.104973	-0.780575	-10.4433	-0.6709	0.68506	-1.0078	24.80716	121.0242	60.25448	0.0292358	0.0100098	60.2545	-47	6
21:05:10:06	0	-0.9958	-0.0006321	0.0073986	0.091228	0.042175	-0.013168	0.010452	0.149491	-0.837684	-10.4699	-0.17615	-0.16418	0.66748	24.80716	121.0242	60.25229	0.0335999	0.00597382	60.2523	-46	6.5
21:05:10:37	0	-0.99581	-0.001151	0.0070832	0.091166	0.022446	0.015762	0.00084305	0.205356	-0.796277	-10.4631	0.49341	0.49414	-0.93408	24.80716	121.0242	60.25623	0.0426636	0.0153122	60.2562	-47	6.5
21:05:10:68	0	-0.99581	-0.00046782	0.0066074	0.091199	-0.0064964	0.035339	-0.0086746	0.122445	-0.749109	-10.4662	0.086914	-1.1865	-1.8955	24.80716	121.0242	60.26187	0.0378723	0.0115051	60.2619	-47	6.25
21:05:10:99	0	-0.99579	-0.00082102	0.0072428	0.091329	-0.0074234	0.015617	-0.0074539	0.169503	-0.817914	-10.4816	0.044067	0.011406	1.668	24.80716	121.0242	60.29842	0.0270233	0.0117416	60.2984	-47	6.25
21:05:11:30	0	-0.99576	-0.0010409	0.0076899	0.091614	-0.025269	-0.029068	-0.0027866	0.199531	-0.866567	-10.5148	0.94287	-0.86035	-0.047699	24.80716	121.0242	60.30631	0.0400391	0.00567627	60.3063	-47	6.5
21:05:11:61	0	-0.99576	-0.001042	0.0075573	0.091673	-0.040833	0.0021591	-0.0064735	0.198308	-0.85142	-10.5215	0.27222	0.85986	-0.12695	24.80716	121.0242	60.31501	0.0366821	0.0218964	60.315	-47	6
21:05:11:92	0	-0.99574	-0.0011261	0.0073341	0.091891	0.013893	0.005619	0.016968	0.205746	-0.82502	-10.5465	-0.45605	0.62646	0.39795	24.80716	121.0242	60.32169	0.0363159	0.0188141	60.3217	-47	6.75
21:05:12:23	0	-0.99577	-0.00042987	0.0064941	0.091654	-0.033478	0.020279	0.010727	0.117267	-0.736524	-10.5186	0.46729	0.39258	-1.3291	24.80716	121.0242	60.33783	0.0295258	0.0260925	60.3378	-49	5.5
21:05:12:55	0	-0.99572	1.19E-05	0.0064805	0.092224	0.024399	-0.020294	0.0074234	0.0671293	-0.739576	-10.5838	1.374	0.17676	-0.75	24.80716	121.0242	60.33108	0.0254059	0.0240021	60.3311	-50	6.5
21:05:12:86	0	-0.99573	-0.00075297	0.0076048	0.092046	0.019257	0.031082	-0.010536	0.166147	-0.859806	-10.5642	-1.0957	-0.97998	1.4521	24.80716	121.0242	60.33282	0.0210419	0.0110474	60.3328	-47	6.25
21:05:13:17	0	-0.9957	-0.00077005	0.007644	0.092282	-0.0049706	-0.0068474	-0.010826	0.168715	-0.86406	-10.5914	-0.8667	-0.13159	-1.3193	24.80716	121.0242	60.33337	0.0280609	0.0263062	60.3334	-47	6.25
21:05:13:48	0	-0.9957	-0.00097275	0.006161	0.092402	-0.056732	0.010979	-0.0038738	0.176239	-0.692684	-10.6048	-0.29321	-1.0693	-0.59912	24.80716	121.0242	60.35333	0.0239563	0.0173645	60.3533	-48	6.5
21:05:13:79	0	-0.99568	-0.00055725	0.0070664	0.092555	0.016937	-0.0025902	0.0015316	0.13854	-0.800372	-10.6225	0.027161	0.46484	0.1438	24.80716	121.0242	60.33752	0.0166931	0.0158844	60.3375	-47	6.75
21:05:14:10	0	-0.99567	-0.0013351	0.0071655	0.092724	0.041077	-0.018097	0.00055313	0.228491	-0.803389	-10.6425	-0.15894	-0.36108	-0.22144	24.80716	121.0242	60.33422	0.031311	0.014328	60.3342	-51	6.5
21:05:14:41	0	-0.99568	-0.000525	0.0062105	0.092639	0.013634	0.0056686	0.010254	0.125839	-0.703043	-10.6319	0.73486	1.1885	-0.58154	24.80716	121.0242	60.33646	0.0268402	0.0370789	60.3365	-49	6.25
21:05:14:72	0	-0.99565	-0.00081977	0.0067678	0.092882	-0.0053482	-0.034546	0.011818	0.165579	-0.763463	-10.6603	-0.070374	-0.10742	0.076782	24.80716	121.0242	60.35087	0.0268555	0.0162811	60.3509	-47	6.75
21:05:15:03	0	-0.99565	-0.00081513	0.0068356	0.092928	-0.010864	0.0055351	0.016144	0.165807	-0.771238	-10.6656	-0.53906	0.75244	0.38965	24.80716	121.0242	60.35679	0.020462	0.0279694	60.3568	-47	6
21:05:15:34	0	-0.99565	-0.0016395	0.0069731	0.09289	0.052429	0.0010986	0.0087051	0.261302	-0.77816	-10.6618	-0.78516	-0.27393	1.4961	24.80716	121.0242	60.35226	0.00991821	0.01548	60.3523	-48	5.75
21:05:15:65	0	-0.99563	-0.0023178	0.0090061	0.092934	-0.006218	-0.02655	-0.0037212	0.360408	-1.00288	-10.6684	-0.39258	1.6182	-1.4434	24.80716	121.0242	60.35149	0.0148239	0.0315857	60.3515	-49	5.75
21:05:15:96	0	-0.99559	-0.0024365	0.0083895	0.093435	0.0027122	0.057678	-0.0021286	0.367846	-0.931082	-10.7259	-0.74219	0.070862	-0.041718	24.80716	121.0242	60.36262	0.0278473	0.0313416	60.3626	-56	6.5
21:05:16:27	0	-0.9956	-0.0012576	0.0077116	0.093408	0.018402	-0.010422	-0.0018444	0.226045	-0.86637	-10.7214	-0.68555	-0.34766	-0.51172	24.80716	121.0242	60.35468	0.0207062	0.016983	60.3547	-53	5.5
21:05:16:58	0	-0.99559	-0.0029952	0.0076089	0.093471	-0.027374	-0.01001	0.0060425	0.423263	-0.836018	-10.7301	0.44482	0.22729	-0.90186	24.80716	121.0242	60.34385	0.0194855	0.0295868	60.3439	-56	6.5
21:05:16:90	0	-0.99553	-0.0033946	0.010319	0.093822	0.033386	0.0096054	-0.0023823	0.498297	-1.14078	-10.7727	0.16455	-0.1015	-0.26636	24.80716	121.0242	60.35117	0.0348511	0.0317688	60.3512	-52	7
21:05:17:21	0	-0.99554	-0.0021256	0.0080358	0.093955	0.017517	0.023041	-0.0099716	0.32905	-0.893875	-10.7853	0.059418	-1.2324	-0.18469	24.80716	121.0242	60.36266	0.0368347	0.0169678	60.3627	-50	6.25
21:05:17:52	0	-0.99554	-0.0013576	0.0069871	0.094033	-0.011642	0.00079393	0.0088196	0.230186	-0.782486	-10.7931	-0.33423	-0.70605	0.29907	24.80716	121.0242	60.36813	0.0204773	0.0187683	60.3681	-51	6.25
21:05:17:83	0	-0.99553	-0.0013476	0.007925	0.094064	0.0085754	-0.011841	0.0091171	0.23919	-0.889593	-10.7971	-0.45898	-0.40967	-0.34692	24.80716	121.0242	60.36847	0.0236206	0.0177002	60.3685	-51	6.5
21:05:18:14	0	-0.99552	-0.0013415	0.0073455	0.094276	0.00080681	0.010063	0.0075684	0.232411	-0.8235	-10.8213	-0.20398	-0.032379	0.53418	24.80716	121.0242	60.35201	0.0356445	0.0252075	60.352	-51	6.5
21:05:18:45	0	-0.99553	-0.0024785	0.0083802	0.094093	-0.0082932	-0.0046425	0.0037518	0.373157	-0.929317	-10.8017	-0.22937	-1.085	0.20679	24.80716	121.0242	60.36334	0.0149384	0.0103302	60.3633	-49	6
21:05:18:76	0	-0.99551	-0.0026997	0.0098329	0.09414	-0.0074577	-0.0064774	0.0033932	0.414127	-1.09264	-10.8082	-0.36182	1.4307	-0.83545	24.80716	121.0242	60.38306	0.0261993	0.0292206	60.3831	-50	6
21:05:19:07	0	-0.99549	-0.0019549	0.0095907	0.094373	0.057617	-0.018021	0.015137	0.326776	-1.07298	-10.834	-0.2832	0.28735	0.51367	24.80716	121.0242	60.38945	0.0312347	0.0157166	60.3895	-52	6.5
21:05:19:38	0	-0.99547	-0.0027738	0.0094678	0.094518	-0.018616	0.0079269	0.0010757	0.419036	-1.05004	-10.8515	0.58691	0.20874	-1.3389	24.80716	121.0242	60.39819	0.0422363	0.0332947	60.3982	-51	6.5
21:05:19:69	0	-0.99548	-0.0014922	0.0090805	0.094509	-0.0011692	-0.03241	0.011223	0.268609	-1.01974	-10.8489	-0.043365	-0.27319	0.16077	24.80716	121.0242	60.41752	0.0488586	0.0153961	60.4175	-52	7
21:05:20:01	0	-0.99548	-0.0010311	0.0089002	0.094597	0.014709	-0.010498	-0.0027447	0.214136	-1.00415	-10.8586	-0.43311	-0.28271	0.12634	24.80716	121.0242	60.44969	0.0420532	0.0224915	60.4497	-50	6.25
21:05:20:32	0	-0.99546	-0.0020364	0.0079719	0.094818	0.018463	0.044556	-0.017227	0.318948	-0.887277	-10.8845	-0.086975	-0.80225	0.28369	24.80716	121.0242	60.45572	0.0682983	0.0226288	60.4557	-51	6.5
21:05:20:63	0	-0.99546	0.00010176	0.0051149	0.095058	0.022247	-0.0039787	-0.012772	0.0441097	-0.584576	-10.9097	0.53662	-1.0781	0.12366	24.80716	121.0242	60.46022	0.0673218	0.0180664	60.4602	-51	6.75
21:05:20:94	0	-0.99546	0.0012827	0.0037823	0.095054	0.013466	0.022263	-0.0090256	-0.105125	-0.445425	-10.9085	0.34375	-0.29126	1.5225	24.80716	121.0242	60.46256	0.0567932	0.0217896	60.4626	-50	6.75
21:05:21:25	0	-0.99545	0.0019677	0.0017287	0.095223	-0.054199	-0.012085	0.011711	-0.2056	-0.218665	-10.928	0.8208	-1.377	1.376	24.80716	121.0242	60.47189	0.0552063	0.00643921	60.4719	-50	6.5
21:05:21:56	0	-0.99544	0.0031076	-0.0004251	0.095308	0.029266	0.041016	-0.010239	-0.359128	0.0145512	-10.9382	-0.52295	-0.34595	-1.833	24.80716	121.0242	60.48143	0.0608521	0.0141296	60.4814	-49	5.75
21:05:21:87	0	-0.99543	0.0041829	-0.0014325	0.095368	-0.030258	-0.003067	0.012924	-0.492799	0.11769	-10.9456	0.65381	-0.72803	0.9209	24.80716	121.0242	60.4797	0.0533142	0.0109558	60.4797	-50	6.75
21:05:22:18	0	-0.99544	0.0034841	-0.00094901	0.095359	0.019318	0.012238	0.0015135	-0.407797	0.0701804	-10.9443	0.54395	0.89551	-0.93604	24.80716	121.0242	60.48649	0.0478821	0.0224457	60.4865	-52	6.25
21:05:22:49	0	-0.99542	0.0035519	-0.0011827	0.095524	-0.0023994	0.00018561	0.0020638	-0.418104	0.0960288	-10.9633	0.60791	-0.17688	-1.4131	24.80717	121.0242	60.50718	0.0424805	0.0156021	60.5072	-53	6.25
21:05:22:80	0	-0.9954	0.0043115	-0.0012646	0.09571	0.04425	0.010971	-0.013458	-0.505668	0.0969628	-10.9849	-0.075378	-0.73145	-0.59863	24.80717	121.0242	60.51204	0.06427	0.0200043	60.512	-53	6
21:05:23:12	0	-0.99539	0.0041648	-0.0021574	0.095771	-0.024963	-0.0091171	0.030441	-0.498738	0.200375	-10.9924	-0.29077	1.0898	0.22778	24.80717	121.0242	60.52386	0.0543823	0.0285492	60.5239	-52	6.5
21:05:23:42	0	-0.99543	0.007159	-0.0044723	0.095165	-0.15613	0.021912	0.011238	-0.865439	0.432073	-10.9253	0.43408	-0.17786	-3.0391	24.80717	121.0242	60.52987	0.102234	-0.0327148	60.5299	-49	6.25
21:05:23:74	0	-0.99648	0.0092119	-0.0049575	0.083224	-0.018021	-0.0021	0.10339	-1.0993	0.47824	-9.5529	0.5459	-0.035645	-2.1719	24.80717	121.0242	60.5574	0.168091	-0.226318	60.5574	-42	6
21:05:24:05	0	-0.99918	0.0085113	-0.0073243	0.038914	0.088928	0.1153	0.22595	-1.0073	0.80068	-4.4677	1.2842	2.1797	0.93262	24.80717	121.0242	60.56736	0.397949	-0.348145	60.5674	-41	6.75
21:05:24:36	0	-0.99938	0.015468	-0.020676	-0.024104	0.0056114	0.17749	0.44678	-1.716	2.4112	2.7272	-1.5732	0.44678	-0.4248	24.80716	121.0242	60.5695	0.544922	-0.490967	60.5695	-39	6
21:05:24:67	0	-0.99458	0.018476	-0.022028	-0.099951	-0.06543	0.0078735	0.5127	-1.85586	2.72321	11.4334	-0.019241	-1.3936	-0.49951	24.80716	121.0242	60.58002	0.769043	-0.631836	60.58	-35	6.5
21:05:24:98	0	-0.98243	0.00054228	0.0019623	-0.1866	0.10638	-0.30664	0.48804	-0.103011	-0.209316	21.5096	1.2598	0.096802	0.20862	24.80716	121.0242	60.6062	0.992676	-0.757813	60.6062	-34	5.5
21:05:25:29	0	-0.97521	-0.0076399	0.013119	-0.22077	-0.12573	-0.02504	0.076782	0.52208	-1.65962	25.5044	0.56836	4.25	1.7666	24.80716	121.0242	60.6144	1.38965	-0.633301	60.6144	-31	6.5
21:05:25:60	0	-0.97487	-0.014646	0.03311	-0.2198	-0.22229	-0.43213	-0.015228	0.804223	-4.07115	25.3825	1.0117	2.7715	0.38428	24.80716	121.0242	60.60703	1.57715	-0.945801	60.607	-35	6.5
21:05:25:91	0	-0.97864	-0.042934	0.048731	-0.19505	-0.066467	-0.13916	-0.40625	3.75193	-6.43809	22.3328	-0.84619	2.5664	2.2168	24.80716	121.0242	60.60984	1.93555	-1.05078	60.6098	-41	6.75
21:05:26:23	0	-0.99254	-0.024223	0.050611	-0.10823	0.069336	0.26099	-0.5752	2.13982	-6.06807	12.3331	0.65137	-1.5605	2.4688	24.80716	121.0242	60.59844	2.21094	-1.55176	60.5984	-42	6.75
21:05:26:54	0	-0.99725	-0.010213	0.052086	-0.051636	-0.93066	-0.1026	-0.41455	0.86376	-6.0238	5.8826	3.5645	-4.6875	-0.27466	24.80716	121.0243	60.61101	2.37305	-2.08008	60.611	-46	6.5
21:05:26:85	0	-0.99972	-0.012659	0.01948	-0.003612	-0.10785	0.29272	-0.24109	1.4434	-2.2374	0.38583	1.1064	0.76904	0.91357	24.80715	121.0243	60.63232	2.58203	-2.77539	60.6323	-45	7
21:05:27:16	0	-0.99972	0.0072191	0.022514	-0.00034686	-0.40039	-0.24744	0.024902	-0.82878	-2.5798	0.058421	3.5293	-2.4629	-0.053864	24.80715	121.0243	60.69541	2.79102	-3.4043	60.6954	-52	6.75
21:05:27:47	0	-0.9998	0.0082983	0.017114	0.0058877	-0.22205	-0.16931	-0.072327	-0.93978	-1.9668	-0.65867	1.8359	-2.4766	-0.1637	24.80714	121.0243	60.72819	3.24805	-3.98828	60.7282	-64	6
21:05:27:78	0	-0.99966	0.018069	0.017631	0.0058099	0.177	0.27148	-0.029175	-2.0598	-2.0322	-0.62945	2.4648	0.33301	-7.5117	24.80714	121.0243	60.78439	3.7207	-4.68359	60.7844	-57	5.75
21:05:28:09	0	-0.99978	0.011764	0.015658	0.0073265	-0.69434	-0.23511	-0.013542	-1.3354	-1.8041	-0.81869	2.3438	-5.2891	1.2725	24.80713	121.0243	60.83191	4.10938	-5.23828	60.8319	-56	6.75
21:05:28:40	0	-0.99987	0.0096447	0.0081346	0.010095	0.13599	0.2417	-0.017807	-1.0959	-0.94323	-1.1479	2.1875	-0.48901	-0.69971	24.80712	121.0243	60.89533	4.68359	-5.96094	60.8953	-62	6.5
21:05:28:71	0	-0.99982	0.016492	-0.0015289	0.0090623	-0.43018	-0.099243	0.011299	-1.8915	0.15804	-1.0412	0.059204	-4.3906	2.4766	24.8071	121.0244	60.94326	5.03516	-6.48047	60.9433	-62	6.75
21:05:29:03	0	-0.99984	0.017294	-0.0047881	0.0011334	0.61133	0.13098	0.025131	-1.9825	0.54635	-0.13935	2.6719	0.84863	1.585	24.80709	121.0244	61.03944	5.58594	-7.14063	61.0394	-64	6
21:05:29:33	0	-0.99976	0.020375	0.0050909	-0.0055296	-0.16968	-0.025223	0.018127	-2.3382	-0.57034	0.64542	1.8682	-2.1348	0.81152	24.80708	121.0244	61.17572	6.09766	-7.64844	61.1757	-61	6.25
21:05:29:65	0	-0.99987	-0.0047459	0.012988	-0.0078032	0.14563	-0.26929	-0.053955	0.53235	-1.4926	0.88734	1.2471	2.3203	-1.542	24.80706	121.0244	61.29025	6.4375	-8.10938	61.2902	-68	4.5
21:05:29:96	0	-0.99983	0.0015876	0.018473	9.29E-05	0.68359	0.38354	-0.0495	-0.18182	-2.117	-0.0072894	2.1035	-3.0527	-2.582	24.80704	121.0245	61.45381	6.91406	-8.84375	61.4538	-70	3.5
21:05:30:27	0	-0.99981	0.0035376	0.018231	0.0051734	-0.31592	-0.036255	-0.04364	-0.39476	-2.0913	-0.58572	0.018845	-4.1797	-1.3301	24.80702	121.0245	61.59727	7.09766	-9.22656	61.5973	-67	5.25
21:05:30:58	0	-0.99992	0.0011064	0.0087747	0.0086515	0.2627	0.22778	-0.018402	-0.11809	-1.0066	-0.9904	-2.2188	-2.3184	-0.24695	24.807	121.0245	61.78015	7.39063	-9.80469	61.7802	-72	2.5
21:05:30:89	0	-0.9997	0.02041	0.0014788	0.013435	0.06958	0.33887	0.026413	-2.3365	-0.20083	-1.5358	1.8447	-1.0117	-2.6426	24.80698	121.0245	61.96554	7.71875	-10.2188	61.9655	-76	-3.5
21:05:31:20	0	-0.99971	0.019331	-0.0077062	0.012077	-0.034882	0.040833	-0.0039864	-2.226	0.85609	-1.4009	-0.087402	-4.9688	0.67773	24.80696	121.0246	62.17011	7.99219	-10.6484	62.1701	-65	5.25
21:05:31:51	0	-0.99981	0.012393	-0.010892	0.010665	0.43262	0.044312	-0.025131	-1.4337	1.2329	-1.2378	1.1367	1.3574	-0.5752	24.80694	121.0246	62.35991	8.3125	-11.0391	62.3599	-75	-1
21:05:31:82	0	-0.99974	0.020462	-0.0056119	0.0077976	-0.59131	-0.46631	-0.020248	-2.35	0.62464	-0.90656	2.2109	-1.0439	1.3203	24.80692	121.0246	62.56445	8.47656	-11.1641	62.5644	-74	1.25
21:05:32:13	0	-0.99982	0.01587	-0.009085	0.0057884	0.51953	0.29004	0.012146	-1.8248	1.0304	-0.67983	0.77637	-3.3262	-1.2402	24.80689	121.0247	62.72241	8.89063	-11.6563	62.7224	-74	0
21:05:32:44	0	-0.99985	0.0031902	-0.01656	0.004361	-0.15833	-0.12311	0.038361	-0.374	1.8961	-0.50599	-2.0508	2.293	-0.13489	24.80687	121.0247	62.91481	8.97656	-11.7188	62.9148	-76	-2.25
21:05:32:76	0	-0.99981	0.01668	-0.0088568	0.0042957	0.074646	-0.40918	0.0072784	-1.916	1.0066	-0.50918	0.749512	-5.74609	11.9063	24.80684	121.0248	63.12377	9.24219	-12.1563	63.1238	-74	1.25
21:05:33:07	0	-0.99993	0.0033991	-0.010551	0.0040668	0.65674	-0.49634	-0.07428	-0.39449	1.2075	-0.47021	0.0088882	3.6035	-1.5098	24.80681	121.0248	63.40244	9.52344	-12.4531	63.4024	-77	-7
21:05:33:38	0	-0.9997	0.020627	-0.012841	0.0020347	-0.088196	-0.046356	0.035675	-2.3674	1.4663	-0.26353	-0.62402	-3.3438	1.8418	24.80679	121.0248	63.64108	9.80469	-12.6484	63.6411	-75	-0.75
21:05:33:69	0	-0.99985	0.012187	-0.012486	-0.0014253	0.3667	-0.099426	-0.01178	-1.3949	1.4327	0.14591	-0.5083	-0.14453	-2.2227	24.80676	121.0249	63.88177	10.0938	-12.9063	63.8818	-77	-3.5
21:05:34:00	0	-0.99978	0.019651	-0.0064202	-0.0027923	-0.042664	-0.066467	-0.0037689	-2.25	0.74185	0.30547	1.1211	-1.3057	0.66064	24.80673	121.0249	64.05176	10.3203	-13.1094	64.0518	-77	-6.25
21:05:34:31	0	-0.99992	0.010519	-0.0023464	-0.005846	0.06897	-0.10028	-0.0032349	-1.2039	0.2759	0.66704	-0.44824	0.4541	-1.0645	24.80671	121.025	64.25814	10.5703	-13.3438	64.2581	-77	-3.5
21:05:34:93	0	-0.99992	0.011194	0.0014271	-0.0052003	0.0098572	0.067505	0.0070572	-1.2836	-0.15685	0.5977	1.7764	0.3894	-1.1787	24.80665	121.025	64.7326	10.9219	-13.7891	64.7326	-77	-4
21:05:35:24	0	-0.999945819	0.008050485	7.17E-08	-5.93E+26	-0.18726	0.049622	0.010582	-1.39E-32	1.55E-27	180	-0.93311	1.6396	-1.1104	24.80662	121.0251	64.9532	11.0391	-13.9688	64.9532	-78	-7
21:05:35:55	0	-0.999866247	7.94E+26	-0.011097205	-0.006648466	0.53027	0.4812	0.025635	-180	9.59E-28	-1.60E-27	-0.60596	0.41357	-5.4336	24.80659	121.0251	65.21146	11.2969	-14.2109	65.2115	-77	-8.5
21:05:35:86	0	-0.999046624	0.036409784	-5.50E+36	-0.000614626	0.160034	71.8125	0.0177307	180	2.08E-35	-180	-0.002939224	0.1488037	245.125	5.17E-21	53894.90234	3.26E+23	11.5546875	0.000109792	3.26E+23	-77	-11
21:05:36:48	0	-0.99921703	0.021184795	9.78E-26	6577.5337	-0.23169	0.040009	0.063416	-5.61E-08	-0.000369074	-179.9826	0.36401	0.8623	3.2949	24.8065	121.0253	65.84583	11.7344	-14.3828	65.8458	-78	-7.5
21:05:36:80	0	-0.99925	0.022455	-0.02448	-0.019764	0.1438	-0.078308	-0.0045738	-2.5197	2.8551	2.2034	0.36523	0.90771	1.5547	24.80647	121.0253	66.03233	11.8594	-14.3203	66.0323	-77	-6
141:141:233:59	87	-4.71E+17	1.73E+28	-1.93E-11	-1.09E+29	-0.016449	-0.018982	0.031006	-8.08E-11	18.06993	180	1.8652	0.15405	0.46973	24.80644	121.0254	66.22955	11.9375	-14.2031	66.2296	-77	-8
21:05:37:42	0	-0.99941	0.011128	-0.017241	-0.027688	0.0354	0.046234	0.031555	-1.2206	2.0102	3.1525	-0.13647	0.47729	-0.36914	24.806416	121.02542	1060.9039	11.9375	-14.09375	1060.9039	-77	-9.75
21:05:38:35	0	-0.99918	0.017744	-0.024126	-0.027244	-0.058136	0.13	0.028885	-1.959	2.8189	3.0755	1.084	2.2168	0.47778	24.80633	121.0256	66.96495	11.6094	-13.5078	66.965	-77	-6
149:05:174:34	10816	-0.96743	0.028791	-0.031253	-0.032716	-0.073181	0.060242	0.014374	-3.2841	3.8084	3.7645	-130.75	-0.000130892	0.002195358	4.62E+17	-1.38E-37	-2.56E-19	0.043304	-3.8633	-2.56E-19	-78	-12
21:05:40:22	0	-0.99852	0.00070987	-0.0039998	-0.054224	-0.171875	-0.13513184	1713	-0.056373	0.46208	6.2165	-1.274414	647	-0.7192383	24.65627	121.0258	66.98386	10.8203	-11.8203	66.9839	-77	-9
21:69:104:53	1536	-0.99849	-0.0064747	3.05E-28	-0.054251	0.25122	0.16687	0.032379	0.74087	-0.040253	6.2198	-2.0391	-1.4531	0.95605	24.80616	121.0259	66.92413	10.6797	-11.4688	66.9241	-78	-11.25
53:37:41:46	0	-0.984167576	-1.69E+27	-1.84E-09	-0.043051682	-0.41553	0.029373	0.00073862	180	-2.93E-27	1.25E-34	0.11353	-0.48462	0.087585	24.80609	121.026	66.82353	10.3906	-11.3516	66.8235	-78	-10.25
21:05:41:77	0	-0.99883	-0.019121	0.023699	-0.037667	-0.36182	-0.10504	-0.037689	2.0892	-2.7962	4.2683	-0.75244	-0.65088	-0.91748	24.80607	121.026	66.77265	10.1797	-11.8906	66.7727	-78	-9
21:05:43:33	0	-0.99886	0.022472	-0.037141	-0.019739	0.29004	0.11328	0.046326	-2.496	4.3061	2.1703	0.66699	0.76416	0.20972	24.80595	121.0262	66.61266	10.9922	-16.5313	66.6127	-78	-11
21:05:35:215	47361	-1.33E-15	5.28E-07	-7.34E-22	-0.03784	7752	0.000900745	-0.057922363	-5.38E-17	0.001598339	180	-0.00020826	-0.0035954	-0.0016298	-7.29E-38	53773.4766	66.6603165	-610.5	-2.345703	66.66032	-78	-12.5
21:143:31:63	24624	6.44E-32	1.03E-30	0.00018017	-0.99989	0.00052118	0.032745	0.088745	-0.02064844	1.18E-28	-180	0.00031209	-0.00061989	-0.00084686	-1.10E+25	484.5733032	-4.44E+18	-0.004238129	-0.00046277	-4.44E+18	-78	-12.5
21:07:20:35	0	0.022811	-0.0012314	7.83E-05	-0.99974	-0.388672	-0.406982	-20.875	-0.01218779	-0.1408688	-177.3858	-0.53369	-0.061768	-1.3711	24.3081951	30982.584	62.380806	-5.77344	6.44141	62.3808	-77	-8.75
21:07:21:224	34856	1.06E-20	4.36E+26	99121381376	-0.231240526	0.3144531	532.5	-11.89063	-180	6.08E-26	2.61E-14	0.98096	1.2129	-1.6025	-1674875.5	121.0256729	62.37196732	-5.70313	3.95E-05	62.372	-78	-11.25
21:07:21:28	0	0.012089	-0.0040733	-0.0047227	-0.99991	-0.0094223	51.0313	-0.0388489	0.5355172	-0.4732726	-178.6168	12976	-0.08392334	-303.5	-3.37E-31	9.03E-35	62.3671	-5.65234	6.61719	62.3671	-77	-10.75
21:07:21:91	0	-0.004191298	-0.001251844	-9.07E+26	2.77E-14	24.7813	0.0221405	-0.0365601	-180	5.30E-28	180	0.046203613	-16480	2.76E-05	4.78E-26	52.507	62.2871	-5.54297	6.69141	62.2871	-78	-10.25
21:07:22:83	0	-0.013233	0.0026496	-0.0029585	-0.9999	0.11072	-0.079956	-0.023041	0.3349747	0.3080852	178.4845	-0.64844	0.63037	0.15808	24.80647	121.0255	62.18032	-5.5	7.00391	62.1803	-78	-7.75
21:07:23:46	0	-0.02062	1.73E-12	0.0044313	-0.99975	-0.1817627	8132	1969	-0.5076996	-0.01047126	177.6369	0.094116211	-22272	-3986	2.63E-21	2030470784	62.16765976	-5.48828	7.07813	62.1677	-77	-9
21:07:23:77	0	-0.022611585	2.43E-12	-444745408	3.73E-16	-0.1698	-0.037445	0.73779	-180	5.83E-09	-180	-0.49878	0.47729	-0.24915	8.67181015	-1.14E-37	-1591264768	0.238525391	8.21875	-1591264768	-78	-12
21:82:24:167	18504	8.20E+31	3.02E-23	-3.67715764	8.77E-18	-0.74072	0.86865	0.00010329	4.22E-53	-5.14E-30	1.23E-47	12.3906	0.910156	-2.17E-05	-2.18E-17	-9.625039	194.5795	0.000202179	2.673828	194.5795	-78	-12.5
21:07:25:33	0	-0.0202	0.0066081	0.018749	-0.9996	0.65576	0.50195	0.051025	-2.163628	0.7135446	177.6712	-1.1934	5.7188	-1	24.80658	121.0253	62.24073	-5.85938	7.38672	62.2407	-77	-10
21:07:25:64	0	-0.021139	0.011081	-0.0086124	-0.99968	-0.73389	-0.10083	0.0015831	0.9600404	1.290406	177.588	-1.8008	-3.1328	-0.93262	24.8066	54.0127	8.43E-19	-5.82031	14.5234	8.43E-19	-77	-9.75
21:07:25:95	8224	-1.24E-21	0.012849294	-2.20E+17	-0.999573827	-0.23462	-0.1311	-0.018784	180	3.10E-35	-180	-0.93066	-0.4314	-0.65088	24.80661	121.0253	62.2014	-5.91016	7.41797	62.2014	-77	-6
21:07:26:26	0	-0.026388	0.011394	0.0021886	-0.99958	0.24292	0.26929	0.0054855	-0.2852218	1.298632	176.9724	-1.1191	-0.76758	-1.1504	24.80662	121.0253	62.15176	-6.04297	7.61328	62.1518	-77	-1.75
21:07:26:57	0	-0.026824	0.021839	0.0084734	-0.99937	0.13562	1.5361	0.02507	-1.038523	2.475703	176.9026	1.4189	0.73779	-0.18616	24.80664	121.0253	62.15518	-6.125	7.69922	62.1552	-77	-8.25
21:07:26:88	0	-0.023211	0.019194	0.012553	-0.99947	-0.26538	0.075806	0.076294	-1.489941	2.165392	177.3111	-0.30029	2.043	0.46021	24.80665	121.0252	62.09834	-6.11719	7.70313	62.0983	-76	-3.5
21:07:27:19	0	-0.020413	0.0087721	0.0024095	-0.99975	0.060822	0.029617	-0.015106	-0.2966092	0.999374	177.658	-0.27075	0.25806	-0.0012007	-1625729.75	121.0251999	62.10067749	-6.23438	7.80469	62.1007	-77	-5.25
21:07:28:43	0	-0.035744	0.0062805	1.04E-06	-0.99934	0.1156	-0.0029526	-0.048981	-0.02584582	0.7192288	175.903	-0.17932	0.2218	0.53857	25.33795738	2.69198E+11	62.02941132	-6.28516	8.1875	62.0294	-78	-6.25
21:07:28:75	0	-0.036566	0.015956	0.0029506	-0.9992	0.22119	0.1106	0.010834	-0.4049124	1.814889	175.8019	2.002	0.66943	-0.4209	24.80675	121.0251	61.98606	-6.26953	8.25	61.9861	-76	-1.5
21:07:29:05	0	-0.034612	0.012313	0.004193	-0.99932	0.31519	-0.011978	-0.0017862	-0.5291507	1.393546	176.0262	0.82324	-0.041687	-1.834	24.80676	121.025	61.95211	-6.30859	8.35156	61.9521	-75	-0.75
21:07:29:37	0	-0.03784	0.010354	-0.00014402	-0.99923	-0.21741	-0.14124	-0.0513	-0.02841172	1.186286	175.6623	1.6748	-0.27881	0.58398	24.80678	121.025	61.96665	-6.26563	8.17969	61.9667	-76	-0.5
21:07:29:67	0	-0.038824089	0.021228844	0.011625862	-3.34E+38	0.69531	1.9346	-0.0062218	-3.99E-39	7.28E-39	180	1.57617	1.84277	-15.5391	24.8068	121.025	62.00023	-6.47266	8.49219	62.0002	-75	-0.75
21:07:29:99	0	-0.03579542	0.022395369	-5.00E+37	-0.999099433	-0.31763	0.44824	0.069519	180	8.20E-38	-180	1.4609	-1.5654	-3.2539	24.80682	121.025	62.01384	-6.51172	8.42969	62.0138	-77	-6.75
21:07:30:30	0	-0.034847	0.017739	-0.0049138	-0.99922	-0.84033	-0.40259	0.072144	0.4921246	2.051218	176.0142	0.000104487	3.42773	11.4375	13.43077	121.0249	61.97689	-6.30859	8.26563	61.9769	-77	-9.25
21:07:30:61	0	-0.034429	0.0082374	-0.0034724	-0.99937	0.63135	-0.09082	-0.043304	0.3652144	0.9570851	176.0569	-0.31421	-0.26294	1.0322	24.80685	121.0249	61.89661	-6.44141	8.50781	61.8966	-73	2.5
21:07:30:92	0	-0.036523	0.0035226	0.00020427	-0.99933	-0.2688	-0.19751	-0.010521	-0.03813509	0.4025337	175.8137	-1.2383	0.24646	0.28809	24.80687	121.0249	61.80492	-6.44141	8.42188	61.8049	-74	0.25
21:07:31:23	0	-0.039449	0.0041493	-0.0043618	5.17E-13	-0.20837	-0.076111	0.0034142	-12.1546	12.4803	-1.33398	-0.98389	-1.5156	-1.4883	24.80688	121.0249	61.73986	-6.41016	9.07813	61.7399	-77	-11
21:07:31:54	0	-0.043739	0.013258	-0.0056486	-0.99894	0.4812	0.083313	-0.056152	0.5803682	1.546147	174.9936	0.63135	-1.3447	-0.5376	24.8069	121.0248	61.68708	-6.40625	8.63281	61.6871	-70	4.5
21:07:31:85	0	-0.044778	0.01376	0.00086349	-0.9989	-0.15369	-0.12042	0.00085926	-0.1695107	1.570856	174.8643	-0.14832	1.1016	-0.47607	24.80692	121.0248	61.61275	-6.39453	8.59375	61.6128	-74	0.75
21:07:32:16	0	-0.043994	0.017764	-0.0082858	-0.99884	0.032806	-0.081665	0.022568	0.8594186	2.075521	174.9716	1.1904	-1.8154	-1.1777	24.80694	121.0248	61.50439	-6.39453	8.6875	61.5044	-73	2.5
21:07:32:48	0	-0.045702	0.011075	0.0032746	-0.99889	0.28784	-0.060364	-0.041595	-0.4329272	1.250595	174.756	0.44629	1.6543	-1.6064	24.80696	121.0248	61.42525	-6.41797	8.77344	61.4253	-72	2.75
21:07:32:79	0	-0.049152	0.022118	0.00597	-0.99853	-0.13928	-0.075134	-0.0020943	-0.8084804	2.498006	174.3462	-0.81738	-0.15979	0.53857	24.80697	121.0247	61.40222	-6.43359	8.76563	61.4022	-73	2.25
21:07:33:41	0	-0.042054	0.020533	-0.00019779	-0.99891	0.479	0.25171	-0.060455	-0.07637241	2.351934	175.177	1.5732	-0.98975	-1.6084	24.80701	121.0247	61.3588	-6.43359	8.73438	61.3588	-74	0.75
21:07:33:72	0	-0.039511	0.025191	0.0027954	-0.9989	0.79297	0.38574	0.017365	-0.4345789	2.872005	175.4588	2.1055	0.18933	0.27832	24.80703	121.0247	61.35588	-6.97266	8.73438	61.3559	-77	-8
21:07:34:03	0	-0.039386	0.024388	0.0048529	-0.99891	-0.45776	0.20471	0.054474	-0.6663634	2.77079	175.468	1.9072	0.13416	0.13538	24.80705	121.0246	61.37369	-6.37109	8.4375	61.3737	-74	1.5
21:07:34:34	0	-0.039291	0.017602	0.00054178	-0.99907	0.0083084	-0.17578	-0.026871	-0.1413636	2.013131	175.4933	1.6172	-0.14526	1.6494	24.80706	121.0246	61.34093	-6.1875	8.28906	61.3409	-75	-2.5
21:07:34:66	0	-0.039845	0.013256	-0.0044678	-0.99911	0.079285	-0.039215	-0.032867	0.4511537	1.538213	175.4385	0.34253	1.5205	2.3086	24.80708	121.0246	61.34941	-6.09766	8.11719	61.3494	-68	5
21:07:34:96	0	-0.041026	0.012259	-0.0014344	-0.99908	-0.098267	0.18286	-0.00387	0.1066194	1.41038	175.2984	-1.0049	-0.33838	1.2559	24.8071	121.0245	61.31405	-5.94531	7.88281	61.3141	-74	1.25
21:07:35:28	0	-0.042418	0.012564	0.0023176	-0.99902	-0.19238	0.1853	0.023331	-0.3264955	1.427236	175.1333	0.18286	0.35791	1.2773	24.80712	121.0245	61.28633	-5.75	7.64063	61.2863	-70	3.75
21:07:35:58	0	-0.04391	0.012094	0.0013003	-0.99896	-0.11133	0.25464	0.050018	-0.2097703	1.37807	174.9638	2.5742	0.38062	1.1455	24.80713	121.0245	61.24812	-5.52734	7.39063	61.2481	-60	6.5
21:07:35:90	0	-0.044479	0.0059135	0.001662	-0.99899	-0.14038	0.12988	0.04303	-0.2204158	0.6685028	174.9	-0.46729	0.020599	1.3164	24.80715	121.0245	61.189	-5.32813	7.17578	61.189	-58	6.25
21:07:36:21	0	-0.048748	-0.0047499	-0.0092793	-0.99876	-0.22009	-0.012169	-0.028473	1.088646	-0.491792	174.4067	-1.1846	-2.3945	-0.75293	24.80716	121.0245	61.14866	-5.08594	6.87109	61.1487	-63	5.75
21:07:36:52	0	-0.057109	-0.0082109	-0.022253	-0.99809	0.088013	-0.2207	-0.054077	2.599967	-0.7934934	173.4323	0.30908	0.13293	2.3691	24.80718	121.0244	61.08266	-4.73438	6.70313	61.0827	-61	6
175:167:36:89	0	-0.064698	-0.018585	-0.021708	-0.9975	-0.084778	-0.11975	-0.065063	2.62155	-1.963816	172.5331	0.053162	-1.1768	0.5376	24.80719	121.0244	61.00752	-4.46875	6.52344	61.0075	-58	6
21:07:37:14	0	-0.082994	-0.02849	-0.029386	-0.99571	0.062256	-0.067871	-0.1333	3.631191	-2.972529	170.3764	0.979	-0.51611	0.43213	24.80721	121.0244	60.9093	-4.17578	6.35938	60.9093	-58	6
21:07:37:45	0	-0.10439	-0.030371	-0.034692	-0.99347	0.15894	-0.086365	-0.13953	4.322961	-3.043941	167.8881	2.7051	-0.082031	1.4639	24.80722	121.0244	60.8478	-3.74609	6.16797	60.8478	-60	6.5
21:07:37:76	0	-0.13114	-0.029993	-0.035222	-0.99028	0.20215	0.15417	-0.1416	4.457704	-2.875449	164.801	1.5527	-1.3096	-1.2646	24.80723	121.0244	60.77665	-3.44336	6.11719	60.7766	-54	5.75
21:07:38:07	0	-0.15045	-0.027242	-0.015294	-0.98812	-0.31836	-0.052582	-0.10944	2.204583	-2.822121	162.6313	0.5415	0.46948	-0.30664	24.80725	121.0243	60.69119	-3.04883	5.81641	60.6912	-59	6
21:07:38:39	0	-0.16959	-0.02121	-0.018356	-0.98512	-0.14233	0.1123	-0.039917	2.486681	-2.038072	160.42	-0.50244	-2.2461	2.125	24.80726	121.0243	60.64006	-2.74414	5.70703	60.6401	-56	6.25
21:07:38:70	0	-0.18595	-0.018205	-0.020841	-0.98217	-0.27124	0.10828	-0.083069	2.735668	-1.605101	158.5199	0.396	-2.627	-0.73584	24.80727	121.0243	60.59697	-2.46484	5.42578	60.597	-57	6.25
21:07:39:01	0	-0.20026	-0.018836	-0.011572	-0.97949	-0.49146	0.2478	0.0052414	1.732237	-1.848958	156.8617	1.1416	0.72119	0.36255	24.80729	121.0243	60.55111	-2.21094	5.26563	60.5511	-55	6.5
21:07:39:32	0	-0.21509	-0.02219	-0.01785	-0.97618	0.45752	0.3501	-0.13062	2.54608	-2.042689	155.1022	1.1963	0.13403	-1.5723	24.8073	121.0243	60.50959	-1.97559	5.125	60.5096	-61	6
21:07:39:63	0	-0.23606	-0.014716	-0.013159	-0.97154	-0.33594	0.080811	-0.064453	1.863882	-1.282504	152.666	2.877	0.79297	4.9609	24.80731	121.0243	60.44702	-1.62305	4.62891	60.447	-58	5.75
21:07:39:94	0	-0.25402	-0.021912	-0.02326	-0.96667	0.14038	0.15918	-0.08252	3.217558	-1.750411	150.5048	-1.5068	-4.3242	-4.1797	24.80733	121.0243	60.41444	-1.38379	4.40625	60.4144	-61	6.25
21:07:40:25	0	-0.27099	-0.030004	-0.020814	-0.96189	0.14648	-0.02507	-0.11267	3.231122	-2.661798	148.4566	0.13867	-1.6953	-0.4519	24.80734	121.0243	60.39103	-1.09473	4.03906	60.391	-60	6
21:07:40:57	0	-0.30224	-0.032975	-0.013769	-0.95256	-0.30127	0.051392	-0.24768	2.649845	-3.124072	144.7207	0.48633	-0.82715	-1.5332	24.80735	121.0243	60.36561	-0.921387	3.72266	60.3656	-60	6.25
21:07:40:87	0	-0.33448	-0.028529	-0.019362	-0.94177	0.13428	0.045471	-0.18445	3.187233	-2.33735	140.8294	0.49585	-0.35718	3.8438	24.80736	121.0243	60.3384	-0.575684	3.50586	60.3384	-61	6.25
21:07:41:19	0	-0.35602	-0.028406	-0.03411	-0.93342	0.14539	-0.094543	-0.18921	4.815034	-1.646995	138.1758	-0.97217	-5.0625	-3.5996	24.80737	121.0243	60.34149	-0.359131	3.07227	60.3415	-60	6
21:07:41:50	0	-0.38525	-0.036503	-0.017325	-0.92193	0.10681	-0.05899	-0.25659	3.448956	-3.093049	134.5489	0.32764	0.12891	-1.5361	24.80737	121.0243	60.30043	-0.149536	2.86719	60.3004	-62	6
21:07:41:81	0	-0.42625	-0.043535	-0.021732	-0.9033	-0.051788	-0.082397	-0.35156	4.38817	-3.446917	129.3446	-0.56592	-0.8457	0.85938	24.80738	121.0242	60.27409	0.013176	2.59961	60.2741	-62	6.25
21:07:42:12	0	-0.48066	-0.037521	-0.018107	-0.87592	-0.08136	0.014015	-0.41284	3.89154	-2.769824	122.3946	0.58057	-1.332	0.27026	24.80739	121.0242	60.24473	0.229736	2.47852	60.2447	-69	4.75
21:07:42:43	0	-0.53639	-0.016628	-0.015554	-0.84367	-0.25171	0.16431	-0.41821	2.526766	-0.6514976	115.0907	0.13159	-0.41602	-1.3184	24.8074	121.0242	60.22988	0.370117	2.36133	60.2299	-63	5.75
21:07:42:74	0	-0.5776	0.017579	-0.011994	-0.81604	-0.26123	0.20215	-0.20483	-0.04201327	2.438402	109.4162	1.0498	-0.98291	-1.2285	24.8074	121.0242	60.20902	0.574707	2.21289	60.209	-70	3.5
21:07:43:05	0	-0.57974	0.040138	-0.0063195	-0.81379	-0.13416	0.096802	0.091492	-2.083111	4.166452	108.9925	-0.053833	1.1514	0.60254	24.80741	121.0242	60.18387	0.662109	2.15625	60.1839	-67	5.25
21:07:43:36	0	-0.55327	0.052158	-0.0040888	-0.83135	0.12451	0.17981	0.25415	-2.930835	5.235435	112.5777	-1.3496	0.20227	-0.51611	24.80742	121.0242	60.16799	0.583496	2.13867	60.168	-74	1
21:07:43:67	0	-0.51189	0.060236	-0.0064141	-0.85691	0.13904	0.061798	0.34277	-2.922425	6.303765	118.1335	0.51465	0.33496	-1.3379	24.80742	121.0242	60.14383	0.384766	1.99512	60.1438	-74	1.25
21:07:43:98	0	-0.46029	0.069678	-0.0068955	-0.885	-0.17065	0.027756	0.41064	-3.00263	7.451039	124.8466	-1.2002	-0.64404	-1.5049	24.80743	121.0243	60.12641	0.110657	1.89746	60.1264	-73	2.25
21:07:44:29	0	-0.3849	0.068265	0.0020233	-0.92043	-0.29688	-0.32104	0.59375	-3.251125	7.129244	134.4111	-0.12311	0.4707	-0.17554	24.80743	121.0242	60.10011	-0.0192108	1.81543	60.1001	-68	5.25
21:07:44:60	0	-0.30406	0.065883	0.0073989	-0.95034	-0.27173	0.021957	0.57959	-3.125661	6.933847	144.327	-1.3965	-1.2852	-0.1554	24.80744	121.0242	60.07946	-0.354004	1.80859	60.0795	-66	5.25
21:07:44:92	0	-0.21786	0.074518	0.016755	-0.97299	-0.061615	-0.027588	0.62061	-3.767062	7.915321	154.4971	-0.77686	-0.55322	-1.0049	24.80744	121.0242	60.05932	-0.548828	1.63184	60.0593	-67	5.5
21:07:45:23	0	-0.1071	0.068638	0.019293	-0.99169	0.095276	-0.021286	0.80908	-3.063109	7.585303	167.4688	-0.51172	-1.3525	-3.1895	24.80745	121.0242	60.02671	-0.654297	1.47461	60.0267	-63	5.75
21:07:45:54	0	0.020903	0.049832	0.016618	-0.9984	0.0091553	-0.18579	0.79443	-1.79115	5.75065	-177.6912	-1.5264	0.1178	-0.049805	24.80745	121.0242	60.00887	-0.860352	1.27637	60.0089	-68	5
21:07:45:85	0	0.12853	0.041934	0.016687	-0.99068	-0.1123	-0.037292	0.59668	-1.281785	5.012692	-165.2714	0.82764	-2.0371	-0.59912	24.80745	121.0242	59.9809	-1.08496	1.02637	59.9809	-66	5.25
21:07:46:16	0	0.20829	0.043121	0.020153	-0.97691	-0.0037556	0.09436	0.49438	-1.232231	5.315889	-155.9851	0.81885	-1.2637	-0.6001	24.80745	121.0242	59.94587	-1.11426	0.757324	59.9459	-58	6.25
21:07:46:47	0	0.29335	0.037619	0.02348	-0.95498	0.045837	-0.11438	0.59619	-1.309789	4.912035	-145.9045	-0.66064	0.82959	1.0166	24.80745	121.0242	59.91252	-1.08691	0.632324	59.9125	-68	4.5
21:07:46:78	0	0.37713	0.032779	0.020981	-0.92534	-0.1427	-0.046997	0.50879	-0.8105744	4.386793	-135.6832	2.0391	-0.38354	-0.74805	24.80745	121.0242	59.87931	-0.977051	0.368408	59.8793	-65	5.25
21:07:47:09	0	0.44095	0.027409	0.021543	-0.89685	0.03775	-0.019485	0.4375	-0.8309887	3.908455	-127.6647	0.7998	-0.21375	0.6167	24.80745	121.0242	59.84276	-0.925293	0.21814	59.8428	-74	0.5
21:07:47:41	0	0.49846	0.022951	0.027604	-0.86617	0.024597	0.0058746	0.42822	-1.432298	3.85762	-120.2093	0.72803	-0.30078	-0.9917	24.80745	121.0242	59.79689	-0.804199	0.125244	59.7969	-62	6.25
21:07:47:71	0	0.55568	0.0158	0.028052	-0.83077	-0.19849	-0.065186	0.40796	-1.667466	3.292248	-112.4928	-0.78809	0.47461	0.88184	24.80745	121.0242	59.7657	-0.711426	-0.00458527	59.7657	-63	6.5
21:07:48:03	0	0.60264	0.010656	0.034033	-0.79722	-0.050537	0.062195	0.34741	-2.377857	3.325522	-105.8954	0.44263	0.055115	1.7422	24.80745	121.0242	59.74051	-0.53418	-0.127441	59.7405	-60	6.25
21:07:48:33	0	0.64184	0.012412	0.045101	-0.76541	-0.16333	0.11792	0.32935	-3.053399	4.410213	-100.1542	1.1855	-0.57129	0.86377	24.80745	121.0242	59.72355	-0.340088	-0.166626	59.7235	-64	5.5
21:07:48:65	0	0.68758	0.0018847	0.053887	-0.72411	0.11133	-0.13562	0.43384	-4.3398	4.4065	-93.1315	-1.1914	0.11835	-1.1416	24.80745	121.0242	59.68854	-0.370117	-0.0889893	59.6885	-65	5.75
21:07:48:96	0	0.73674	-0.0041873	0.036847	-0.67516	-0.11017	-0.2373	0.45093	-3.20972	2.7879	-85.0832	0.87695	-0.38721	-1.6543	24.80744	121.0242	59.65451	-0.403564	-0.140991	59.6545	-72	3
21:07:49:27	0	0.77576	-0.0065605	0.011844	-0.63088	-0.13074	-0.037109	0.27271	-1.43963	0.57857	-78.2457	0.81738	-1.4395	1.3057	24.80744	121.0242	59.62407	-0.4021	-0.401367	59.6241	-64	5.5
21:07:49:58	0	0.78966	-0.011727	0.0029469	-0.61343	-0.14368	0.11481	0.086426	-1.26846	-0.557676	-75.6759	1.6572	0.99658	0.43677	24.80744	121.0242	59.60225	-0.400635	-0.611816	59.6022	-62	6
21:07:49:89	0	0.78428	-0.0073498	0.0030812	-0.62036	-0.087585	0.22913	-0.094849	-0.879621	-0.245571	-76.6852	0.89551	-0.27588	0.67432	24.80744	121.0242	59.59899	-0.412354	-0.683594	59.599	-58	6.25
21:07:50:20	0	0.76856	-0.0061057	0.01912	-0.63946	-0.10791	0.096985	-0.13818	-1.93961	1.2366	-79.5435	0.057922	1.249	0.40625	24.80743	121.0242	59.56443	-0.330078	-0.581055	59.5644	-69	4.75
21:07:50:51	0	0.75475	0.0043021	0.023509	-0.65557	-0.020004	0.015022	-0.096375	-1.39528	2.35708	-81.9832	1.0107	1.4678	0.29248	24.80743	121.0242	59.52999	-0.259277	-0.3479	59.53	-59	5.75
21:07:50:83	0	0.74632	0.0013491	0.02527	-0.6651	-0.065857	-0.03894	-0.041504	-1.81227	2.26452	-83.4491	1.4023	0.26196	-0.25391	24.80743	121.0242	59.50372	-0.00482941	-0.0640869	59.5037	-59	6
21:07:51:14	0	0.74664	0.0013152	0.020087	-0.66493	-0.026581	-0.038391	0.039063	-1.41883	1.81909	-83.3967	0.81836	0.55811	0.53467	24.80743	121.0242	59.46465	0.139771	0.135132	59.4646	-62	6.5
21:07:51:45	0	0.74723	-0.0017475	0.017627	-0.66433	0.04184	-0.052429	-0.015671	-1.49215	1.37647	-83.2959	-1.207	0.38843	-0.17773	24.80743	121.0242	59.45341	0.276123	0.253906	59.4534	-60	5.75
21:07:51:76	0	0.74777	-0.00085213	0.01381	-0.66381	0.0099869	0.033661	-0.0068741	-1.12382	1.11864	-83.2034	0.42261	-0.17493	0.15735	24.80743	121.0242	59.4244	0.371826	0.287354	59.4244	-59	5.75
21:07:52:07	0	0.74779	-0.0017874	0.015348	-0.66375	-0.035339	-0.035339	0.0064049	-1.32091	1.17928	-83.1994	-0.071045	-0.18982	-0.2876	24.80743	121.0242	59.41494	0.361816	0.295898	59.4149	-60	5.75
21:07:52:38	0	0.74775	-0.0048608	0.016356	-0.66376	0.006012	0.030914	-0.0063171	-1.66109	1.03185	-83.2041	0.030487	0.21069	1.2783	24.80743	121.0242	59.41029	0.276611	0.197876	59.4103	-65	5
21:07:52:69	0	0.74772	-0.0042463	0.020808	-0.66368	-0.016617	0.045319	-0.010643	-1.9473	1.46005	-83.21	-0.41138	-0.20227	-0.58301	24.80743	121.0242	59.38786	0.251709	0.135254	59.3879	-64	5.75
21:07:53:00	0	0.7478	-0.003275	0.02237	-0.66354	-0.010521	0.0057716	0.0022335	-1.98279	1.66811	-83.1962	-0.96777	-0.041443	-0.019531	24.80743	121.0242	59.35475	0.214966	0.180786	59.3547	-60	5.75
21:07:53:31	0	0.74799	-0.0030689	0.019395	-0.66342	-0.0090561	-0.055664	0.0068779	-1.73829	1.42921	-83.1644	0.13562	0.11475	-0.68896	24.80743	121.0242	59.3304	0.229248	0.199585	59.3304	-58	6
21:07:53:62	0	0.74807	-0.0038068	0.016116	-0.66341	0.11377	-0.051666	0.02475	-1.55195	1.09217	-83.1499	0.58301	1.5361	-0.88037	24.80743	121.0242	59.31874	0.209229	0.202026	59.3187	-59	7.25
21:07:53:93	0	0.74817	-0.0044267	0.014629	-0.66334	-0.02858	0.033264	-0.013634	-1.49186	0.917734	-83.1333	0.89209	0.27319	-1.2852	24.80743	121.0242	59.3013	0.240723	0.192139	59.3013	-59	6.25
21:07:54:25	0	0.74808	-0.0037091	0.014879	-0.66343	0.021744	0.0096664	0.0036259	-1.44948	0.993532	-83.1492	-1.0332	-0.64209	0.7793	24.80743	121.0242	59.27206	0.234985	0.17749	59.2721	-59	5.75
21:07:54:55	0	0.7482	-0.0038423	0.017252	-0.66324	0.0029774	0.0096054	0.018753	-1.64117	1.1872	-83.127	0.49976	0.55273	0.09375	24.80743	121.0242	59.26352	0.245361	0.202271	59.2635	-60	5.75
21:07:54:87	0	0.74805	-0.0029414	0.018314	-0.66338	-0.00028539	0.033936	-0.016479	-1.64499	1.3464	-83.1532	0.60645	-0.74268	-1.0889	24.80743	121.0242	59.25168	0.260742	0.209106	59.2517	-61	6.5
21:07:55:17	0	0.74805	-0.0023467	0.02229	-0.66326	-0.079529	-0.0077286	0.0065193	-1.89652	1.73263	-83.1522	0.65039	-0.22644	1.5469	24.80743	121.0242	59.24078	0.258789	0.200562	59.2408	-58	6
21:07:55:49	0	0.74802	-0.0022764	0.025286	-0.66319	0.028488	0.027557	-0.0030556	-2.11849	1.99481	-83.1567	-0.50391	0.19202	0.19031	24.80743	121.0242	59.21104	0.238281	0.203735	59.211	-59	6.25
21:07:55:80	0	0.74826	-0.0024469	0.02662	-0.66286	0.026077	0.082703	-0.0049515	-2.23385	2.0971	-83.1141	0.0020485	0.086426	-0.99463	24.80743	121.0242	59.18648	0.246582	0.210938	59.1865	-60	6
21:07:56:11	0	0.74819	-0.0024507	0.028272	-0.66288	0.016678	-0.022171	0.0069084	-2.36012	2.23836	-83.1261	-0.6416	0.12299	1.1582	24.80743	121.0242	59.15862	0.242432	0.226318	59.1586	-65	5.5
21:07:56:42	0	0.74823	-0.0012477	0.026725	-0.6629	0.012878	-0.049011	0.0013952	-2.13919	2.19719	-83.1208	-0.49829	-0.39893	-0.64502	24.80743	121.0242	59.13159	0.222778	0.237183	59.1316	-59	5.75
21:07:56:73	0	0.74835	-0.001405	0.026522	-0.66278	0.030685	0.0010643	0.011642	-2.1368	2.16817	-83.1002	-0.30444	-0.076355	0.69092	24.80743	121.0242	59.07344	0.231079	0.219604	59.0734	-60	5.75
21:07:57:04	0	0.74849	-0.0018727	0.027719	-0.66256	0.02005	0.041748	0.0071945	-2.2675	2.23587	-83.0748	0.85254	0.45459	-0.0080261	24.80743	121.0242	59.04868	0.244873	0.230713	59.0487	-59	5.75
21:07:57:35	0	0.74851	-0.0022311	0.029555	-0.66246	-0.039551	-0.0075188	-0.0020618	-2.43779	2.36633	-83.0707	0.13623	-0.26025	1.1309	24.80743	121.0242	59.03983	0.213867	0.241943	59.0398	-59	6
21:07:57:66	0	0.74863	-0.0026028	0.025586	-0.66249	0.033661	-0.0041313	0.0069427	-2.16751	1.99774	-83.052	0.29028	-0.074219	0.28174	24.80743	121.0242	59.02734	0.21106	0.241333	59.0273	-60	6
21:07:57:98	0	0.74902	-0.0023949	0.023214	-0.66214	-0.0070724	-0.0062218	0.006485	-1.96832	1.81109	-82.9851	0.56689	-0.1886	2.4004	24.80743	121.0242	58.98768	0.195068	0.232544	58.9877	-58	6
21:07:58:29	0	0.7491	-0.0023231	0.022383	-0.66208	0.015961	0.0016651	0.0048752	-1.89879	1.74536	-82.9717	0.41724	-0.49707	0.27197	24.80743	121.0242	58.97033	0.220825	0.213013	58.9703	-60	6
21:07:58:60	0	0.74925	-0.0019545	0.023856	-0.66186	0.025925	-0.010445	0.0088425	-1.97864	1.90037	-82.945	-1.2422	-0.38477	0.015015	24.80743	121.0242	58.95807	0.175537	0.242432	58.9581	-59	5.75
21:07:58:91	0	0.74953	-0.0027018	0.016291	-0.66176	0.039825	-0.091614	0.0065079	-1.46797	1.19447	-82.8983	-0.47998	-0.63135	-0.29541	24.80743	121.0242	58.91908	0.138306	0.269775	58.9191	-58	6.5
21:07:59:22	0	0.74958	-0.0030297	0.0071217	-0.66186	0.030991	-0.0057068	0.0043411	-0.800414	0.381943	-82.8899	-0.23914	0.61865	0.0013695	24.80743	121.0242	58.87732	0.144531	0.247314	58.8773	-57	6.25
21:07:59:53	0	0.74974	-0.0029822	0.0030244	-0.66172	0.0098877	0.015358	-0.0039291	-0.485551	0.0337117	-82.8631	-0.099426	-0.19495	-0.069275	24.80743	121.0242	58.85914	0.180908	0.221313	58.8591	-57	7
21:07:59:84	0	0.74979	-0.0025121	0.0048804	-0.66165	0.020935	0.036926	-0.0054741	-0.585877	0.228857	-82.8542	-1.6064	0.030136	0.80078	24.80743	121.0242	58.86652	0.184204	0.204712	58.8665	-56	6.5
21:08:00:16	0	0.74995	-0.0027464	0.0079251	-0.66144	-0.0466	0.0067902	-0.0041466	-0.836765	0.472915	-82.8268	1.2344	0.76563	-1.6357	24.80743	121.0242	58.85243	0.184326	0.224365	58.8524	-57	6.25
21:08:00:46	0	0.75017	-0.0020911	0.0082366	-0.66119	-0.013031	0.026352	-0.0050011	-0.803884	0.549624	-82.7882	0.10931	-0.45264	-1.4717	24.80743	121.0242	58.80653	0.157349	0.206299	58.8065	-57	6.25
21:08:00:78	0	0.75009	-0.0029267	0.0075904	-0.66129	0.048981	-0.019638	0.0037422	-0.826799	0.430648	-82.8031	-0.14832	0.58105	-1.3564	24.80743	121.0242	58.79667	0.153076	0.213379	58.7967	-58	6.25
21:08:01:08	0	0.75011	-0.002676	0.007874	-0.66127	0.011894	0.0024185	0.012383	-0.826727	0.474042	-82.8	0.0019073	0.59668	0.62939	24.80743	121.0242	58.78418	0.150146	0.217651	58.7842	-58	6
21:08:01:40	0	0.75029	-0.0024481	0.007017	-0.66107	0.020523	-0.010338	-0.0027866	-0.742078	0.417848	-82.7688	-0.98145	0.26001	-0.20154	24.80743	121.0242	58.75243	0.134644	0.211792	58.7524	-58	6.5
21:08:01:71	0	0.75049	-0.0022264	0.0072283	-0.66083	0.0098572	0.019791	-0.0039005	-0.738889	0.453047	-82.7329	0.69043	-0.71777	-1.0508	24.80743	121.0242	58.70619	0.132202	0.188354	58.7062	-58	6.5
21:08:02:02	0	0.75053	-0.0025765	0.0073932	-0.66079	0.032501	-0.024124	0.0090408	-0.781462	0.440759	-82.7265	0.16272	0.41699	-0.85498	24.80743	121.0242	58.69722	0.127197	0.19812	58.6972	-58	6
21:08:02:33	0	0.75052	-0.0023191	0.0077474	-0.6608	0.011963	0.0070877	0.015793	-0.786152	0.490697	-82.7291	0.34033	0.85645	0.4646	24.80743	121.0242	58.67782	0.122925	0.206055	58.6778	-57	6.25
21:08:02:64	0	0.75061	-0.0024162	0.0082805	-0.66068	-0.048859	-0.028702	0.010246	-0.834795	0.529319	-82.7118	-0.65674	-1.0938	0.34302	24.80743	121.0242	58.67985	0.112	0.200684	58.6798	-57	6.25
21:08:02:95	0	0.75071	-0.0023942	0.0082628	-0.66058	0.0099716	-0.0029488	-0.0037098	-0.83149	0.529585	-82.6955	-1.0977	-0.53662	0.93115	24.80743	121.0242	58.65089	0.10083	0.19458	58.6509	-57	6.25
21:08:03:26	0	0.75077	-0.0020867	0.0081806	-0.66051	0.057465	0.010056	-0.0066757	-0.79876	0.545871	-82.6843	-1.4297	-0.051727	1.0449	24.80743	121.0242	58.64202	0.0942993	0.205078	58.642	-57	6
21:08:03:57	0	0.75077	-0.0022128	0.0079282	-0.66051	-0.026596	0.0010824	-0.004303	-0.790509	0.514606	-82.6846	0.29541	-0.41309	0.22534	24.80743	121.0242	58.65761	0.100525	0.208252	58.6576	-57	6.25
21:08:03:89	0	0.75087	-0.0019335	0.0082096	-0.6604	-0.0096588	-0.01741	0.0083923	-0.787705	0.560068	-82.6682	-0.54541	-0.035461	-0.31348	24.80743	121.0242	58.64342	0.092041	0.213623	58.6434	-57	6.25
21:08:04:20	0	0.75095	-0.0024053	0.0082969	-0.6603	0.0097122	-0.0062218	0.0012674	-0.834829	0.531979	-82.6532	1.4346	0.94189	-1.2842	24.80743	121.0242	58.63963	0.0901489	0.216553	58.6396	-57	6
21:08:04:51	0	0.75102	-0.0019303	0.0079006	-0.66023	0.0042915	0.020279	0.0084457	-0.763918	0.533894	-82.6424	0.62891	0.71582	-0.17859	24.80743	121.0242	58.61447	0.0762329	0.21167	58.6145	-57	6.25
21:08:04:82	0	0.75099	-0.0016342	0.0081279	-0.66026	-0.01004	-0.011383	0.0030479	-0.755659	0.575833	-82.6464	-0.54883	-0.1908	-0.56006	24.80743	121.0242	58.61401	0.0717163	0.211426	58.614	-58	6
21:08:05:13	0	0.75103	-0.0021701	0.0081535	-0.66021	0.06131	-0.018951	0.0039406	-0.803672	0.537537	-82.639	0.47119	0.57617	-1.0137	24.80743	121.0242	58.60089	0.0666504	0.21521	58.6009	-63	6
