UTC,Pack_count,q0,q1,q2,q3,RollRate,PitchRate,YawRate,Roll,Pitch,Yaw,FreeAccX,FreeAccY,FreeAccZ,Lat,Long,Height,VelX,VelY,VelZ,LoRaRSSI,LoRaSNR,
20:53:35:35,0,-0.94735   0.0032665  -0.0010358     0.32017,-0.041382   -0.016953   0.0040741,-0.392616  -0.00740089     -37.3466,0.07489    -0.79541     0.47046,24.80716      121.0242      45.56916,0.0201569  -0.00855255      45.5692,-42,5.5,
20:53:35:66,0,-0.94687    0.003646  -0.0023541     0.32159,-0.056824    0.039612   -0.013428,-0.482364     0.121071     -37.5193,0.084778     0.64941    -0.25488,24.80716      121.0242      45.57294,0.0568848    0.0533142      45.5729,-42,6.25,
20:53:35:98,0,-0.94434    0.007622   -0.015623     0.32852,-0.10223     0.15332   -0.069702,-1.41352      1.40386     -38.3812,0.40552      1.3125       1.042,24.80716      121.0242      45.59388,0.153687     0.139404      45.5939,-45,6,
20:53:36:28,0,-0.94309    0.010288   -0.020957     0.33171,0.11749   -0.047119    0.031677,-1.9098      1.87409     -38.7876,0.20557   -0.017059    0.025162,24.80716      121.0242      45.60759,-0.0337524     0.117676      45.6076,-45,6.75,
20:53:36:60,0,-0.9441     0.01138   -0.017871     0.32898,-0.045197   -0.044189    0.016357,-1.90585       1.5046     -38.4476,0.55518    -0.63477      1.1533,24.80716      121.0242      45.61229,-0.0369873     0.111267      45.6123,-44,6.25,
20:53:36:91,0,-0.94441    0.010962   -0.017049     0.32815,-0.019394    0.041138  0.00089121,-1.82826      1.43307     -38.3438,-0.63818    -0.64307    -0.12341,24.80716      121.0242      45.61199,0.0445251     0.134521       45.612,-45,6.5,
20:53:37:22,0,-0.94552   0.0070401  -0.0080152     0.32538,0.10925    -0.10443    0.009613,-1.06176     0.605959     -37.9845,-1.709     -1.1533    0.024979,24.80716      121.0242      45.61815,-0.115906     0.116516      45.6181,-46,6.5,
20:53:37:53,0,-0.94636   0.0046758   0.0036585     0.32305,-0.033112   -0.056061   0.0093079,-0.371657    -0.569848     -37.6936,0.88379    -0.41357    -0.13806,24.80716      121.0242      45.61184,-0.0246429    0.0947266      45.6118,-43,6.5,
20:53:37:84,0,-0.94625   0.0061131  -0.0057854     0.32333,-0.037476    0.065735   -0.004467,-0.87727     0.400831     -37.7333,-0.60791     -0.3186     0.57373,24.80716      121.0242      45.63343,0.095459   -0.0197144      45.6334,-42,5.75,
20:53:38:15,0,-0.94629    0.009763   -0.012831     0.32291,0.055298    0.016739    0.024597,-1.53387      1.03012     -37.6967,-1.2207    -0.38062      1.2881,24.80716      121.0242      45.61224,-0.010704    0.0609131      45.6122,-42,5.75,
20:53:38:46,0,-0.94683   0.0059339   -0.013869     0.32137,-0.040894    0.032745    0.036377,-1.15493      1.28632     -37.5094,0.38818      1.3545     0.06842,24.80716      121.0242      45.62469,0.0715942     0.146484      45.6247,-43,6,
20:53:38:77,0,-0.94745    0.013225   -0.030895     0.31815,-0.091248     0.16406    0.039093,-2.56621      2.87331      -37.188,-0.63623     0.79834    -0.50439,24.80716      121.0242      45.63441,0.124084     0.214844      45.6344,-46,6.75,
20:53:39:08,0,-0.94843    0.016939   -0.040783     0.31391,-0.015808   -0.023239    0.022552,-3.31722      3.82587     -36.7378,-0.21387    -0.44727     0.99854,24.80717      121.0242      45.63865,-0.0150299     0.280762      45.6387,-45,6.5,
20:53:39:39,0,-0.95008   0.0097116   -0.028075      0.3106,0.024673    -0.17725   0.0056801,-2.05928      2.71187     -36.2555,0.010796    -0.29956     0.72607,24.80717      121.0242      45.62511,-0.157959     0.399414      45.6251,-42,6.25,
20:53:39:71,0,-0.95129   0.0055715   -0.013032     0.30796,0.18481    0.052643  -0.0015917,-1.06755      1.22409     -35.8877,-0.074402    -0.76611      1.0195,24.80717      121.0242      45.62568,-0.0153122     0.267334      45.6257,-46,6.75,
20:53:40:01,0,-0.95179    0.009477   -0.019838     0.30596,0.0034065    0.042297    0.012993,-1.73032      1.83177     -35.6685,0.46021    -0.34937     0.12018,24.80717      121.0242      45.64859,-0.00120068     0.213501      45.6486,-51,6.5,
20:53:40:33,0,-0.95245   0.0081812   -0.023402     0.30367,-0.0017843  -0.0038681    0.025803,-1.70885      2.27003     -35.4016,-0.86914     0.84424     0.98438,24.80717      121.0242      45.64259,-0.0623779     0.217041      45.6426,-49,6,
20:53:40:64,0,-0.95262   0.0035868   -0.013861     0.30381,0.0087509   -0.033356   -0.049103,-0.874394      1.38837     -35.3879,-1.748     -2.0801    -0.88818,24.80717      121.0242      45.63737,-0.0918579     0.164063      45.6374,-47,6.25,
20:53:40:95,0,-0.95324   0.0073512   -0.013746     0.30182,0.025726    0.050171    0.023407,-1.27881      1.24733     -35.1523,1.6543    -0.11261      2.8965,24.80717      121.0242      45.63186,0.0122986   -0.0358276      45.6319,-46,6.75,
20:53:41:26,0,-0.95786    0.010683   -0.019441     0.28637,-0.13367    0.023026     0.18579,-1.81177      1.78364     -33.3183,0.76172     -0.7959      1.1035,24.80717      121.0242      45.65503,0.0104523    -0.375488       45.655,-62,5.5,
20:53:41:57,0,-0.96908    0.012291   -0.015814     0.24594,-0.046967    0.053253     0.31128,-1.81139      1.40988     -28.5025,-0.94141     -2.4492    -0.52734,24.80717      121.0242      45.65859,0.0975952    -0.750977      45.6586,-43,6.25,
20:53:41:88,0,-0.99198   0.0059846   -0.018045     0.12495,0.070862    0.038269     0.37061,-0.939235      1.96588     -14.3741,0.14111      1.0342    -0.20911,24.80717      121.0242      45.68282,0.499512    -0.907715      45.6828,-38,6,
20:53:42:19,0,-0.99724   0.0081678   -0.028404    0.068146,0.098755    0.030472     0.35303,-1.157      3.1837     -7.8506,-0.18066      1.0703     0.72754,24.80716      121.0242      45.71305,0.565918    -0.902832       45.713,-35,6.25,
20:53:42:50,0,-0.99988    0.011171    -0.01046   0.0036609,0.15063   -0.079468     0.40527,-1.2848      1.1939    -0.43295,2.9492       3.998      2.1426,24.80716      121.0242      45.74741,0.804199     -1.14648      45.7474,-32,6.25,
20:53:42:81,0,-0.99864   0.0035063    0.013416   -0.050273,0.099182    -0.25977     0.24841,-0.4787     -1.5153      5.7702,1.332     -4.1523      1.9707,24.80716      121.0242      45.75662,1.20117      -1.5293      45.7566,-33,6,
20:53:43:12,0,-0.99717   -0.018192    0.041349    -0.06002,-0.44702     -0.2749    -0.20886,1.8011     -4.8558      6.8126,2.2266     -2.9805      2.1016,24.80716      121.0242      45.76038,1.77637     -1.82617      45.7604,-37,7,
20:53:43:43,0,-0.99797   -0.032614    0.051333   -0.018956,0.20898    0.048828    -0.34229,3.6403     -5.9519       1.987,-0.22449    -0.80566      0.2876,24.80716      121.0242      45.79419,2.16016     -2.48438      45.7942,-45,6.25,
20:53:43:75,0,-0.99725   -0.035105    0.064321    0.011214,0.10938    -0.14185    -0.35645,4.1316     -7.3251     -1.5531,0.68799      1.2979      1.1299,24.80716      121.0242      45.84534,2.41406     -2.98828      45.8453,-48,6.5,
20:53:44:05,0,-0.99667    -0.02914    0.051836    0.055825,0.69336      0.4729      -0.375,3.6807     -5.7434     -6.5964,0.041809     -2.8516     -4.4844,24.80715      121.0242      45.90585,2.75195     -3.83594      45.9058,-57,6.25,
20:53:44:37,0,-0.99568   -0.002775    0.046419    0.080353,-0.59863   -0.039246    -0.17883,0.74722     -5.2781     -9.2622,1.376     -3.2793     -1.5693,24.80714      121.0242      45.98527,2.875     -4.50391      45.9853,-59,6.5,
20:53:44:68,0,-0.99439   0.0059308    0.036181    0.099252,-0.38672   -0.045837    -0.18469,-0.265014     -4.19391     -11.3901,1.9805     -5.0664     -1.5205,24.80713      121.0242      46.07859,3.1543     -5.24219      46.0786,-64,5.75,
20:53:44:99,0,-0.99496    0.011651    0.021261    0.097319,-0.13782      0.1886    -0.06192,-1.09244     -2.55488     -11.1486,1.3896     -3.1445    -0.13757,24.80713      121.0243      46.19225,3.49609     -5.88672      46.1922,-61,6.5,
20:53:45:30,0,-0.99488  -0.0038753  -0.0038935     0.10093,-0.16199     0.16895    -0.08136,0.396785     0.488706     -11.5844,-1.5596     -1.1504     -1.4355,24.80712      121.0243      46.30511,3.81836     -6.44922      46.3051,-61,6,
20:53:37:61,0,-0.80734    0.037676  -0.0064761     0.09417,26144    0.0240783691    0.0288848877,-5.3777     0.290834     -13.3197,4.4961     -3.8711     -1.6455,24.80612564086914      121.3017044067383  3.681610405012693e+30,4.30078125            -7.06640625  3.681610405012693e+30,-69,2.75,
20:53:45:92,0,-0.99643   0.0068943  -0.0086675    0.083641,0.058472     -0.1521      0.0131,-0.87043     0.92365     -9.6033,1.4824       1.957    -0.18921,24.80709      121.0243      46.64781,4.65625     -7.64844      46.6478,-62,6.25,
20:53:46:23,0,-0.99697    0.021805  -0.0054834    0.074482,0.16345    -0.11621     -0.0042,-2.5388     0.44034     -8.5548,0.56592     -4.0859    0.062866,24.80707      121.0243        46.814,5.11328     -8.07813       46.814,-65,5,
20:53:46:54,0,-0.99723    0.022326  -0.0048267    0.070837,-0.13953    -0.10992     0.01297,-2.5914     0.37033     -8.1346,1.9941     -3.6816    -0.56885,24.80706      121.0244      47.01471,5.5         -8.5      47.0147,-72,2.5,
20:53:46:85,0,-0.99775   0.0025697  -0.0029978    0.066966,-0.082214     -0.3064  -0.0027256,-0.31681     0.32303     -7.6804,1.0918      3.7012     0.99121,24.80704      121.0244      47.21621,5.77344     -8.80469      47.2162,-68,4.5,
