UTC(1),UTC(2),UTC(3),UTC(4),Pack_count(1),Pack_count(2),q0(1),q0(2),q0(3),q0(4),q1(1),q1(2),q1(3),q1(4),q2(1),q2(2),q2(3),q2(4),q3(1),q3(2),q3(3),q3(4),RollRate(1),RollRate(2),PitchRate(1),PitchRate(2),YawRate(1),YawRate(2),FreeAccX(1),FreeAccX(2),FreeAccY(1),FreeAccY(2),FreeAccZ(1),FreeAccZ(2),Lat(1),Lat(2),Lat(3),Lat(4),Long(1),Long(2),Long(3),Long(4),Height(1),Height(2),Height(3),Height(4),VelX(1),VelX(2),VelY(1),VelY(2),VelZ(1),VelZ(2),LoRaRSSI,LoRaSNR,
13,48,38,18,13,83,61,193,131,142,59,92,151,76,187,174,178,144,191,126,217,125,162,218,153,209,34,206,44,139,50,169,53,121,65,198,116,31,66,242,24,237,66,145,148,28,29,75,176,41,158,110,-57,6.50,
13,48,38,49,13,84,61,193,239,184,58,152,50,218,187,156,87,200,191,126,216,185,168,22,167,72,158,254,183,214,47,29,61,214,65,198,116,31,66,242,24,237,66,145,149,38,165,66,176,68,26,240,-57,7.00,
13,48,38,80,13,85,61,193,102,239,59,61,141,172,187,153,112,168,191,126,218,34,35,29,34,8,39,19,180,109,177,2,190,6,65,198,116,31,66,242,24,237,66,145,139,39,166,187,176,100,163,22,-58,6.50,
13,48,39,11,13,86,61,193,145,132,59,75,208,246,187,147,183,80,191,126,217,162,38,136,30,42,166,89,55,44,46,205,182,88,65,198,116,31,66,242,24,237,66,145,133,160,157,24,175,202,161,148,-57,6.25,
13,48,39,42,13,87,61,193,56,26,58,206,197,62,187,156,83,112,191,126,218,219,165,243,157,92,41,34,178,93,54,192,64,23,65,198,116,31,66,242,24,237,66,145,133,77,159,69,175,242,37,64,-58,7.00,
13,48,39,73,13,88,61,193,42,86,58,199,12,84,187,171,236,88,191,126,218,222,31,87,33,30,37,9,182,122,60,88,188,74,65,198,116,31,66,242,24,237,66,145,129,217,162,178,174,206,34,30,-57,6.25,
13,48,40,5,13,89,61,193,111,186,58,181,113,212,187,159,101,176,191,126,218,47,34,84,28,3,162,173,46,195,189,229,183,248,65,198,116,31,66,242,24,237,66,145,126,104,164,14,175,90,29,132,-57,5.75,
13,48,40,36,13,90,61,192,203,52,59,15,97,42,187,169,64,152,191,126,219,244,37,231,159,142,156,34,174,124,58,51,186,76,65,198,116,32,66,242,24,237,66,145,126,32,164,35,174,89,34,188,-57,5.75,
13,48,40,67,13,91,61,192,201,208,59,7,242,189,187,154,229,168,191,126,220,31,172,16,28,45,41,33,187,198,57,9,179,78,65,198,116,32,66,242,24,237,66,145,121,249,167,56,173,211,31,111,-57,6.00,
13,48,40,98,13,92,61,192,240,146,59,142,5,101,187,147,197,128,191,126,219,64,168,211,39,199,162,245,57,189,192,97,182,190,65,198,116,32,66,242,24,236,66,145,109,160,169,128,174,245,160,33,-56,6.75,
13,48,41,29,13,93,61,192,206,2,58,87,119,164,187,157,142,184,191,126,220,42,41,24,167,55,32,215,184,16,57,251,188,3,65,198,116,32,66,242,24,236,66,145,106,70,29,164,172,122,144,71,-56,6.75,
13,48,41,60,13,94,61,193,141,58,187,75,161,44,187,207,115,112,191,126,217,12,34,206,164,108,164,226,54,109,51,151,185,168,65,198,116,32,66,242,24,236,66,145,96,41,167,21,172,112,166,63,-55,6.25,
13,48,41,91,13,95,61,193,32,176,187,69,187,67,187,217,177,160,191,126,218,54,39,33,40,56,35,39,183,39,56,60,188,55,65,198,116,32,66,242,24,236,66,145,95,74,170,171,173,143,29,18,-54,6.00,
13,48,42,22,13,96,61,192,0,234,187,157,66,154,187,132,76,120,191,126,222,18,166,89,170,101,163,169,184,134,60,129,176,206,65,198,116,33,66,242,24,236,66,145,95,121,169,11,141,7,163,64,-54,6.50,
13,48,42,53,13,97,61,188,3,95,188,50,90,110,187,184,232,88,191,126,230,79,38,235,172,195,32,209,63,120,189,211,68,10,65,198,116,33,66,242,24,236,66,145,92,58,31,249,36,2,36,87,-57,6.75,
13,48,42,84,13,98,61,188,23,89,188,164,91,248,188,63,174,0,191,126,217,72,47,178,161,131,162,0,61,48,191,55,64,51,65,198,116,33,66,242,24,236,66,145,82,156,36,94,179,57,153,114,-58,5.75,
13,48,43,16,13,99,61,206,58,250,188,157,226,28,188,148,37,98,191,126,155,228,169,223,161,93,46,139,56,134,195,122,181,190,65,198,116,33,66,242,24,236,66,145,84,199,47,168,186,136,37,38,-57,6.25,
13,48,43,46,13,100,61,232,65,19,188,134,201,104,188,125,245,172,191,126,72,96,42,148,38,22,44,243,50,171,193,180,188,56,65,198,116,32,66,242,24,236,66,145,82,97,52,174,189,214,32,98,-58,6.25,
13,48,43,78,13,101,62,11,141,5,59,192,106,82,188,137,220,226,191,125,146,18,169,31,47,69,46,237,48,115,192,72,180,50,65,198,116,31,66,242,24,237,66,145,85,175,55,89,192,89,38,166,-57,6.00,
13,48,44,9,13,102,62,7,78,115,60,202,48,178,188,133,188,116,191,125,164,106,46,189,47,223,168,231,59,40,196,0,54,175,65,198,116,28,66,242,24,237,66,145,87,144,57,69,193,234,39,152,-54,6.00,
13,48,44,40,13,103,61,230,39,21,61,80,221,186,188,87,111,68,191,126,5,88,44,239,45,148,180,57,189,10,41,251,57,85,65,198,116,25,66,242,24,238,66,145,100,232,57,196,195,146,43,114,-70,4.00,
13,48,44,71,13,104,61,125,241,55,61,74,112,41,188,139,196,6,191,127,40,31,47,221,168,158,180,161,180,126,197,139,64,40,65,198,116,21,66,242,24,239,66,145,120,57,57,57,196,170,44,253,-68,4.50,
13,48,45,2,13,105,60,221,182,12,61,38,155,145,188,76,115,72,191,127,172,164,172,254,176,237,178,43,183,48,56,2,184,137,65,198,116,15,66,242,24,240,66,145,142,167,54,172,197,133,43,161,-50,6.50,
13,48,45,33,13,106,187,225,8,240,60,95,10,141,188,136,141,195,191,127,239,74,51,147,178,4,177,44,191,148,197,250,178,60,65,198,116,8,66,242,24,242,66,145,173,232,52,81,198,78,47,162,-51,7.00,
13,48,45,64,13,107,187,206,213,48,187,168,134,44,189,15,33,250,191,127,213,206,20,216,44,211,42,215,186,94,195,119,193,208,65,198,116,0,66,242,24,243,66,145,210,252,39,159,199,24,44,106,-53,6.50,
13,48,45,95,13,108,187,154,39,72,56,0,166,0,188,14,234,60,191,127,252,203,178,145,167,156,25,129,52,110,187,73,68,165,65,198,115,248,66,242,24,244,66,146,3,243,42,107,199,192,48,29,-58,5.75,
13,48,46,26,13,109,188,47,204,12,60,18,51,57,188,161,100,200,191,127,236,232,166,25,32,244,169,181,187,79,194,148,185,222,65,198,115,238,66,242,24,246,66,146,64,29,165,37,200,60,43,93,-67,4.75,
13,48,46,58,13,110,188,181,251,80,59,157,247,175,188,192,172,217,191,127,220,242,181,51,169,153,173,144,52,194,194,118,191,52,65,198,115,226,66,242,24,248,66,146,121,130,176,46,200,157,47,68,-52,6.75,
13,48,46,89,13,111,188,246,41,20,188,17,110,148,188,94,51,54,191,127,217,206,167,60,169,143,169,45,59,184,190,180,173,40,65,198,115,214,66,242,24,249,66,146,187,97,179,26,200,236,47,31,-59,6.00,
13,48,47,20,13,112,188,244,43,192,188,159,13,177,188,94,254,234,191,127,208,118,49,12,172,64,40,172,182,99,188,76,42,170,65,198,115,200,66,242,24,251,66,147,3,135,180,143,201,57,46,196,-53,6.00,
13,48,47,51,13,113,188,211,246,176,188,133,208,118,188,147,161,27,191,127,214,172,181,2,168,182,39,238,52,212,190,179,194,58,65,198,115,186,66,242,24,253,66,147,84,33,180,249,201,137,48,14,-54,6.25,
13,48,47,82,13,114,188,239,205,88,187,222,202,244,188,146,221,129,191,127,215,224,53,13,46,231,171,12,183,149,192,60,190,173,65,198,115,171,66,242,24,255,66,147,163,239,181,125,201,205,50,100,-61,6.25,
13,48,48,14,13,115,189,12,233,43,188,91,202,195,188,38,233,128,191,127,207,233,48,40,174,165,163,6,55,30,185,167,60,95,65,198,115,156,66,242,25,2,66,147,251,234,181,187,202,16,50,53,-58,6.25,
13,48,48,45,13,116,189,12,88,205,188,170,23,28,187,225,140,96,191,127,201,214,178,99,161,22,37,235,58,100,61,84,64,186,65,198,115,139,66,242,25,4,66,148,61,237,182,89,202,84,48,15,-58,6.25,
13,48,48,76,13,117,189,9,2,83,188,182,8,86,188,81,137,226,191,127,197,199,49,31,142,150,158,243,184,241,195,208,63,17,65,198,115,122,66,242,25,6,66,148,140,201,182,63,202,146,49,120,-57,6.25,
13,48,49,7,13,118,189,6,80,214,188,212,69,34,188,12,5,56,191,127,196,89,180,213,28,89,40,40,57,189,177,131,61,244,65,198,115,104,66,242,25,9,66,148,229,43,182,29,202,205,48,187,-60,6.25,
13,48,49,38,13,119,188,250,26,236,188,186,232,175,188,126,253,238,191,127,200,115,173,85,46,155,161,245,185,112,185,27,194,42,65,198,115,86,66,242,25,11,66,149,86,200,181,92,203,5,50,74,-58,6.25,
13,48,49,69,13,120,188,249,148,182,188,171,102,81,188,69,47,172,191,127,206,124,38,105,40,60,31,215,57,95,57,40,194,90,65,198,115,67,66,242,25,14,66,149,172,203,180,131,203,52,48,50,-68,4.75,
13,48,50,1,13,121,188,238,156,2,188,147,58,210,188,111,64,2,191,127,210,159,182,19,170,50,40,179,56,253,186,46,64,63,65,198,115,47,66,242,25,17,66,150,39,230,180,191,203,111,50,123,-69,4.00,
13,48,50,32,13,122,188,254,146,8,188,140,67,159,188,67,239,112,191,127,210,16,53,30,175,47,42,155,190,199,188,22,195,42,65,198,115,28,66,242,25,20,66,150,144,230,180,205,203,152,48,85,-67,4.75,
13,48,50,63,13,123,189,1,127,199,188,150,88,31,188,10,217,120,191,127,209,219,172,83,48,52,23,14,41,75,192,97,54,213,65,198,115,7,66,242,25,22,66,150,240,200,180,221,203,203,50,110,-68,4.50,
13,48,50,94,13,124,189,3,22,4,188,61,196,213,187,99,141,160,191,127,217,166,184,201,39,220,170,54,56,103,59,13,194,146,65,198,114,242,66,242,25,26,66,151,72,84,180,200,203,253,44,197,-66,5.50,
13,48,51,25,13,125,189,1,110,91,188,37,230,152,188,151,149,252,191,127,208,178,51,98,168,151,34,60,184,95,195,33,194,34,65,198,114,221,66,242,25,29,66,151,172,224,181,8,204,18,50,119,-65,5.50,
13,48,51,57,13,126,189,8,29,171,187,220,246,153,188,101,87,70,191,127,211,231,58,24,36,222,40,103,172,47,193,89,65,202,65,198,114,199,66,242,25,32,66,152,25,49,181,150,204,38,53,1,-67,5.25,
13,48,51,88,13,127,189,16,219,56,187,255,44,198,187,28,74,80,191,127,212,211,32,214,44,150,34,93,60,186,178,67,60,103,65,198,114,177,66,242,25,35,66,152,133,139,182,121,204,56,52,144,-65,5.00,
13,48,52,19,13,128,189,18,9,103,188,43,211,174,188,33,96,226,191,127,207,144,54,6,44,9,165,71,184,252,54,98,186,96,65,198,114,154,66,242,25,38,66,152,198,107,182,192,204,79,49,13,-72,2.50,
13,48,52,50,13,129,189,22,200,143,188,26,96,16,187,183,148,40,191,127,207,166,169,187,173,113,34,101,61,204,186,110,69,82,65,198,114,131,66,242,25,41,66,153,64,215,183,4,204,98,52,2,-70,4.25,
13,48,52,82,13,130,189,37,113,251,188,31,38,135,188,57,47,56,191,127,195,63,48,185,47,138,169,1,181,180,188,167,189,170,65,198,114,108,66,242,25,45,66,153,180,158,183,227,204,117,53,42,-69,4.25,
13,48,53,13,13,131,189,48,125,56,188,128,34,245,188,48,63,12,191,127,183,84,55,20,166,94,168,127,181,69,58,94,199,18,65,198,114,84,66,242,25,48,66,154,60,199,183,119,204,131,52,231,-69,4.25,
13,48,53,44,13,132,189,45,54,229,188,219,10,24,186,230,38,0,191,127,173,212,57,115,45,9,43,160,60,14,57,30,72,218,65,198,114,60,66,242,25,51,66,154,182,236,183,255,204,143,53,224,-68,4.75,
13,48,53,75,13,133,189,31,197,164,188,226,217,239,188,91,216,104,191,127,175,19,169,226,47,158,34,200,61,186,194,40,183,244,65,198,114,35,66,242,25,55,66,155,68,192,182,211,204,164,53,42,-70,3.75,
13,48,54,6,13,134,189,21,133,235,188,184,254,110,219,222,150,246,191,127,194,43,154,20,49,84,40,55,185,166,182,112,63,160,65,198,114,11,66,242,25,58,66,155,225,236,182,26,204,177,53,54,-73,2.00,
13,48,54,37,13,135,189,27,114,91,188,22,79,190,58,249,239,32,191,127,205,234,177,104,173,179,26,2,184,191,64,104,184,186,65,198,113,242,66,242,25,62,66,156,81,37,180,220,204,188,49,171,-75,-1.25,
13,48,54,69,13,136,189,35,145,21,187,36,57,62,188,20,193,188,191,127,200,213,55,107,42,83,168,83,58,76,191,151,188,2,65,198,113,216,66,242,25,66,66,156,173,216,181,85,204,192,50,242,-72,2.25,
13,48,55,0,13,137,189,47,219,5,187,138,142,167,54,236,64,0,191,127,194,253,182,174,48,74,170,69,185,170,65,0,200,86,65,198,113,191,66,242,25,69,66,157,27,102,182,165,204,190,49,53,-77,-5.25,
13,48,55,31,13,138,189,44,69,245,188,157,25,139,187,177,18,128,191,127,184,253,53,29,174,223,41,23,60,108,62,84,195,90,65,198,113,166,66,242,25,73,66,157,126,212,182,131,204,178,51,229,-73,1.75,
13,48,55,62,13,139,189,41,49,106,188,201,46,60,59,105,238,224,191,127,179,223,186,109,179,157,43,236,174,74,186,17,69,50,65,198,113,141,66,242,25,76,66,157,200,1,181,236,204,179,44,172,-74,-1.00,
82,89,199,199,1,128,116,34,68,41,188,253,240,144,59,211,90,136,189,255,178,72,161,149,160,160,230,110,144,221,64,114,150,18,65,246,113,126,112,146,153,80,114,152,210,224,213,170,204,143,46,152,-74,1.25,
13,48,56,25,13,141,189,18,139,21,188,119,122,168,188,21,241,56,191,127,203,212,176,198,177,204,45,54,186,192,64,42,184,25,65,198,113,92,130,9,220,163,67,47,131,51,180,47,204,153,27,249,-77,-6.00,
13,48,56,56,13,142,189,30,125,11,187,79,12,248,60,90,93,44,191,127,200,125,172,192,170,242,171,67,59,41,64,138,194,118,65,198,113,67,66,242,25,87,66,158,30,226,179,101,204,132,49,111,-76,-4.00,
13,48,56,87,13,143,189,36,76,139,187,197,239,150,59,14,212,80,191,127,201,234,46,99,166,110,40,184,174,147,64,219,194,87,65,198,113,44,66,242,25,90,66,158,40,47,180,161,204,109,45,253,-76,-4.00,
13,48,57,17,13,144,189,45,211,138,187,181,97,114,59,187,105,232,191,127,194,227,170,217,168,62,169,56,184,39,60,52,191,56,65,198,113,21,66,242,25,93,66,157,255,54,181,51,204,89,47,73,-74,0.50,
13,48,57,49,13,145,189,62,229,124,188,117,126,106,60,135,227,26,191,127,168,105,181,250,77,49,193,133,0,172,89,32,66,223,65,198,112,254,66,242,25,97,66,157,248,38,181,30,204,63,173,110,-77,-9.25,
13,48,57,80,13,146,189,51,172,201,188,246,62,45,187,27,104,192,191,127,163,25,50,61,155,144,15,97,186,56,190,227,61,188,65,198,112,232,66,242,25,100,66,158,1,134,181,38,204,41,47,149,-74,0.25,
13,48,58,11,13,147,189,50,54,116,188,235,182,180,60,159,218,184,191,127,154,75,184,244,46,47,142,120,57,76,67,7,190,99,65,198,112,210,66,242,25,103,66,157,245,73,180,78,204,18,45,30,-73,2.00,
13,48,58,42,13,148,189,28,70,77,188,204,78,192,59,80,107,240,191,127,187,145,56,254,50,64,40,170,182,77,60,129,64,236,65,198,112,189,66,242,25,106,66,157,195,42,179,3,203,217,47,12,-77,-6.00,
13,48,58,73,13,149,189,34,213,194,187,215,142,251,183,2,112,0,191,127,202,201,55,4,54,108,174,173,38,134,68,18,197,102,65,198,112,167,66,242,25,109,66,157,122,99,176,218,203,189,50,179,-77,-6.00,
13,48,59,4,13,150,189,51,109,115,187,135,99,87,60,140,228,24,143,121,229,213,51,76,164,110,169,49,61,134,68,209,198,4,65,198,112,148,66,242,25,112,66,157,47,70,177,185,203,132,45,236,-76,-2.25,
13,48,59,35,13,151,189,54,165,196,188,75,171,195,186,91,218,128,191,127,185,188,171,56,166,183,148,168,184,38,184,252,193,244,65,198,112,128,66,242,25,114,66,157,11,13,179,114,203,92,39,102,-73,1.25,
13,48,59,67,13,152,189,56,132,4,188,17,237,251,60,97,120,224,191,127,180,171,179,26,40,46,167,162,50,3,65,38,179,76,65,198,112,109,66,242,25,117,66,156,212,172,179,236,203,46,42,126,-72,2.75,
13,49,0,29,13,154,189,76,242,218,188,136,84,211,60,51,211,196,191,191,96,223,42,196,177,109,37,102,183,238,54,149,57,95,65,198,112,72,66,242,25,122,66,156,57,15,180,64,202,196,34,217,-77,-4.75,
13,49,0,60,13,155,189,78,174,223,188,122,116,142,60,89,236,88,191,127,159,13,45,79,175,52,40,133,54,206,65,68,181,223,65,198,112,55,66,242,25,125,66,155,241,158,180,37,202,135,23,53,-77,-7.50,
13,49,0,91,13,156,189,86,209,145,188,89,68,38,60,185,11,64,191,127,143,79,181,157,49,90,171,197,60,64,66,221,57,215,65,198,112,38,66,242,25,127,66,155,169,107,180,20,202,69,17,118,-74,1.50,
13,49,1,22,13,157,189,94,108,5,188,171,157,162,60,139,210,204,191,127,135,86,47,109,174,86,38,244,183,27,65,225,40,181,65,198,112,21,66,242,25,129,66,155,57,163,179,81,201,246,169,73,-76,-5.25,
13,49,1,53,13,158,189,93,101,40,188,131,164,63,60,176,165,234,191,127,136,121,167,181,51,26,165,48,60,45,65,190,183,97,65,198,112,6,66,242,25,131,66,154,227,111,178,171,201,179,166,167,-76,-4.75,
13,49,1,84,13,159,189,88,215,208,188,156,129,61,60,43,120,100,191,127,148,137,39,63,177,85,34,110,183,167,52,215,181,23,65,198,111,248,66,242,25,133,66,154,149,12,176,251,201,116,172,194,-77,-5.75,
13,49,2,16,13,160,189,94,4,13,188,173,244,168,60,180,73,24,191,127,128,250,48,216,36,237,153,95,191,10,64,136,64,108,65,198,111,234,66,242,25,135,66,154,82,149,177,73,201,44,168,30,-77,-2.50,
13,49,2,47,13,161,189,91,243,91,188,150,143,123,60,116,1,188,191,127,143,24,53,248,53,141,165,79,179,232,64,42,185,14,65,198,111,220,66,242,25,137,66,154,9,154,178,21,200,228,149,6,-77,-7.75,
13,49,2,78,13,162,189,90,163,236,188,150,103,160,60,148,61,82,191,127,140,197,49,180,48,80,158,8,55,139,53,84,62,176,65,198,111,207,66,242,25,138,66,153,193,135,176,42,200,167,36,60,-76,-2.75,
13,49,3,9,13,163,189,94,77,173,188,198,209,127,60,161,253,116,191,127,127,62,49,57,47,95,36,118,180,187,68,62,189,152,65,198,111,196,66,242,25,140,66,153,128,36,174,179,200,96,170,58,-76,-4.75,
13,49,3,40,13,164,189,72,60,23,188,177,171,183,60,54,77,88,191,127,158,40,176,134,46,81,41,140,177,84,64,4,54,88,65,198,111,185,66,242,25,142,66,153,38,37,171,37,200,49,171,33,-77,-7.00,
13,49,3,71,13,165,189,71,217,202,188,114,86,188,60,133,231,152,191,127,162,1,172,8,157,36,165,109,185,91,62,30,185,227,65,198,111,174,66,242,25,143,66,152,199,42,162,112,199,245,171,41,-76,-4.25,
13,49,4,2,13,166,189,86,220,89,188,112,190,97,60,72,190,8,191,127,153,198,46,237,170,65,157,163,59,140,65,182,60,8,65,198,111,164,66,242,25,144,66,152,108,48,31,146,199,137,172,84,-76,-5.25,
13,49,4,33,13,167,189,89,93,187,188,160,24,149,60,45,68,160,191,127,147,119,36,25,173,60,40,242,56,44,64,36,62,206,65,198,111,155,66,242,25,146,66,152,36,231,36,36,199,34,175,195,-76,-5.50,
13,49,4,64,13,168,189,82,188,123,188,130,82,230,60,90,188,140,191,127,155,15,175,132,160,155,158,247,56,34,62,128,57,241,65,198,111,146,66,242,25,147,66,151,226,92,40,41,198,177,172,181,-75,-2.00,
13,49,4,96,13,169,189,82,235,57,188,100,81,221,60,62,120,104,191,127,158,65,33,237,40,156,155,3,171,75,67,246,53,148,65,198,111,138,66,242,25,148,66,151,160,212,37,157,198,51,168,105,-77,-6.00,
13,49,5,26,13,170,189,108,85,213,188,139,152,39,60,87,135,240,191,127,131,156,176,88,170,10,171,88,180,118,59,156,189,137,65,198,111,130,66,242,25,149,66,151,93,27,45,141,197,191,175,102,-76,-4.75,
13,49,5,58,13,171,189,106,141,30,188,207,115,64,60,70,176,184,191,127,122,151,162,158,172,53,42,8,50,206,181,149,188,128,65,198,111,123,66,242,25,150,66,151,24,176,45,255,197,67,175,240,-75,-1.75,
13,49,5,89,13,172,189,78,159,206,188,206,54,221,60,99,108,68,191,127,145,116,44,103,37,1,39,172,54,236,65,200,171,71,65,198,111,117,66,242,25,151,66,150,234,198,48,128,196,208,170,204,-75,-1.25,
13,49,6,20,13,173,189,52,146,17,188,186,219,71,60,46,141,0,191,127,171,128,40,67,19,195,39,180,49,15,66,168,51,225,65,198,111,111,66,242,25,152,66,150,175,250,49,64,196,103,165,212,-77,-9.50,
13,49,6,51,13,174,189,42,18,188,188,186,152,126,59,191,243,32,191,127,181,90,164,34,28,67,35,170,152,147,176,194,186,22,65,198,111,106,66,242,25,153,66,150,124,194,51,43,196,47,170,31,-76,-5.50,
13,49,6,82,13,175,189,31,204,54,188,195,2,9,60,41,48,148,191,127,184,8,170,87,41,29,28,227,50,231,61,149,55,151,65,198,111,101,66,242,25,153,66,150,60,153,51,162,195,191,170,174,-75,-1.75,
13,49,7,13,13,176,189,8,77,28,188,183,104,17,59,241,144,24,191,127,201,127,46,22,42,83,43,183,60,136,68,41,58,44,65,198,111,96,66,242,25,154,66,150,15,219,52,201,194,255,172,98,-76,-3.50,
13,49,7,44,13,177,188,217,108,86,188,161,193,211,60,65,106,12,191,127,215,146,157,125,43,249,45,173,56,84,59,243,188,73,65,198,111,92,66,242,25,154,66,149,234,11,53,1,194,35,167,253,-76,-4.00,
13,49,7,75,13,178,188,200,211,34,188,143,72,68,60,79,177,148,191,127,221,4,180,31,160,35,41,0,60,90,56,32,57,134,65,198,111,89,66,242,25,155,66,149,197,11,53,145,192,242,170,251,-76,-5.25,
13,49,8,230,220,161,164,165,101,120,21,7,155,36,44,45,157,242,7,109,147,164,53,143,134,29,226,188,200,20,173,79,208,244,153,231,65,132,213,71,162,172,178,156,81,16,93,207,33,13,130,105,-77,-12.25,
13,49,9,0,13,182,188,147,50,68,124,194,66,218,93,57,51,190,191,127,235,235,159,50,134,103,163,7,166,249,61,89,38,233,65,198,111,82,66,242,25,156,66,149,100,181,52,168,184,241,40,175,-77,-10.00,
13,49,9,31,13,183,188,149,193,44,60,92,49,68,59,95,108,128,191,127,238,195,44,115,168,238,150,152,4,224,192,9,57,26,65,198,255,82,75,242,25,156,66,149,66,126,53,152,182,81,33,41,-78,-10.25,
13,49,9,62,13,184,140,149,92,46,59,246,119,230,187,55,85,0,181,127,249,2,41,104,169,191,166,64,181,135,188,7,186,211,65,198,111,82,66,178,29,220,66,133,58,65,53,38,182,180,37,17,-77,-9.75,
13,49,9,93,13,185,188,150,205,26,59,170,15,224,187,140,51,96,191,127,243,108,14,29,38,196,30,211,30,200,52,138,175,53,65,198,111,82,66,242,25,156,66,149,8,192,51,243,181,221,38,231,-78,-10.00,
13,49,10,24,93,186,236,150,8,196,60,34,158,139,187,145,228,208,191,127,241,35,154,129,41,99,39,87,166,243,45,102,178,232,65,198,111,82,66,242,25,156,66,149,14,132,50,193,181,126,37,39,-78,-10.00,
13,49,10,86,13,188,188,158,28,220,60,11,11,210,187,159,97,56,191,127,240,169,158,200,165,94,39,177,182,153,56,225,181,125,65,198,111,82,66,242,25,156,66,148,229,8,51,202,180,194,29,158,-76,-10.50,
108,245,11,129,109,190,175,157,200,78,59,50,153,28,152,150,68,82,223,85,242,52,60,201,166,42,45,220,169,131,184,104,239,195,65,198,240,218,210,56,153,156,66,56,218,227,48,136,161,161,223,82,-77,-11.00,
13,53,11,160,157,46,37,161,209,186,59,122,231,224,178,181,170,249,191,127,241,175,182,59,224,26,42,171,178,202,183,136,185,121,65,134,47,83,2,242,25,216,66,158,207,220,50,54,179,210,239,139,-77,-11.00,
45,34,14,10,13,192,188,103,190,36,210,239,153,42,187,182,78,8,191,127,240,149,168,115,165,86,146,115,46,109,58,255,182,253,225,198,111,83,82,242,9,157,66,148,167,233,50,232,210,125,164,95,-77,-11.25,
11,241,210,80,75,199,156,180,128,234,214,66,164,89,44,0,17,145,188,127,233,214,168,6,159,232,159,191,42,140,107,22,62,140,65,246,106,77,18,242,6,203,23,84,72,76,106,61,240,31,185,167,-77,-12.00,
253,155,220,3,205,215,60,212,156,56,236,55,180,80,220,205,240,116,191,95,230,22,152,155,30,1,29,46,243,21,242,67,33,218,55,83,38,90,167,120,227,144,64,242,88,127,249,198,46,195,56,51,-77,-12.00,
13,55,26,123,14,226,188,42,190,40,120,121,121,10,185,130,137,48,157,95,196,20,0,94,38,180,1,194,183,245,19,9,142,53,65,246,175,87,210,178,25,27,82,12,224,200,171,86,47,34,249,135,-77,-10.00,
13,49,23,3,205,35,112,204,166,62,176,37,20,210,176,48,199,140,191,125,199,203,40,233,47,202,195,13,175,232,59,55,187,59,65,198,111,87,66,242,25,155,130,152,164,154,173,144,47,112,164,16,-77,-10.25,
13,49,23,34,13,228,188,249,226,156,184,236,149,108,188,17,176,176,143,124,212,206,29,205,36,132,160,158,186,176,163,214,176,0,17,198,111,87,66,242,25,154,66,148,44,153,237,145,47,0,31,33,-77,-11.25,
88,232,200,19,13,238,173,205,57,34,188,32,135,141,188,4,156,152,191,127,230,36,41,187,36,19,41,74,165,134,97,60,188,118,65,198,111,87,66,242,25,154,6,208,103,190,7,82,37,127,158,107,-77,-10.75,
13,49,25,21,13,234,188,203,195,56,188,41,155,54,252,10,86,76,191,127,229,225,170,159,159,16,153,250,184,175,46,92,61,153,65,198,111,88,66,242,25,154,66,148,44,119,174,51,46,130,33,83,-77,-10.25,
157,50,19,14,13,77,188,206,227,50,40,49,201,252,140,131,166,171,191,127,228,176,43,173,157,27,62,54,24,41,156,42,237,251,65,246,99,250,66,242,25,154,66,50,48,175,174,248,143,40,62,54,-77,-10.50,
4,164,180,8,87,224,143,142,87,3,175,84,33,150,204,4,152,200,73,179,68,237,167,49,145,142,157,41,3,254,184,103,107,150,0,230,122,80,211,241,159,170,18,109,27,206,173,89,166,128,24,119,-77,-11.25,
13,49,29,42,61,199,191,17,115,118,32,47,139,66,176,9,119,72,181,213,69,174,161,28,152,6,25,96,47,14,46,229,52,97,65,196,15,56,210,242,25,170,66,148,75,2,174,73,45,138,158,14,-77,-11.50,
9,244,25,93,91,47,234,145,253,216,164,46,180,50,254,123,241,164,125,59,110,39,215,174,86,162,114,11,50,94,191,254,192,30,65,247,57,8,203,48,16,26,7,244,113,248,84,162,182,99,180,64,-77,-11.50,
13,49,30,98,13,204,191,212,34,158,123,21,117,213,188,4,69,144,191,127,230,116,30,95,161,60,40,161,54,163,187,148,190,47,113,198,111,88,66,242,25,154,74,20,190,142,173,8,44,49,221,237,-77,-11.25,
13,49,31,14,13,253,188,209,247,60,188,22,206,218,188,11,169,200,21,223,239,82,26,192,173,21,41,213,184,208,57,168,63,187,65,198,111,88,66,242,25,154,66,148,59,64,172,41,44,58,36,120,-77,-10.25,
13,49,33,64,81,52,90,122,221,133,47,18,57,49,188,10,56,192,191,63,230,172,165,180,114,203,34,186,165,186,242,117,62,25,77,198,106,21,79,247,73,159,130,157,30,167,140,242,40,210,34,192,-77,-11.50,
13,49,37,69,14,18,188,229,51,88,188,24,162,31,188,111,142,24,191,127,220,128,168,169,36,18,36,74,183,163,200,32,178,235,65,198,111,88,66,242,25,154,66,147,200,57,174,172,182,69,35,13,-77,-8.25,
13,49,38,0,14,19,188,239,114,118,188,48,95,226,188,124,133,132,191,127,216,108,44,241,169,39,165,76,191,44,199,25,171,5,65,198,111,88,66,242,25,154,66,147,194,41,174,141,186,59,27,111,-76,-4.50,
13,49,38,31,14,20,189,10,144,194,188,135,50,240,188,132,165,56,191,127,200,246,44,88,45,250,167,65,54,5,56,61,59,141,65,198,111,87,66,242,25,154,66,147,188,151,177,20,188,242,144,61,-77,-6.75,
13,49,38,62,14,21,188,255,160,46,187,178,137,181,188,133,150,201,191,127,214,104,175,15,151,239,164,9,177,1,60,69,47,65,65,198,111,85,66,242,25,154,66,147,184,187,178,40,191,65,39,131,-76,-5.50,
13,49,38,94,14,22,189,66,3,117,59,170,166,218,188,129,238,178,191,127,173,76,42,3,47,230,173,205,186,118,195,99,185,70,65,198,111,83,66,242,25,155,66,147,184,191,178,44,192,197,40,45,-77,-4.50,
13,49,39,25,14,23,189,173,131,72,188,227,87,48,188,111,121,56,191,126,244,5,53,131,178,8,172,188,39,255,189,61,66,14,65,198,111,79,66,242,25,155,66,147,182,34,180,136,194,5,41,154,-77,-6.75,
13,49,39,184,134,152,61,145,196,42,188,253,188,242,188,174,74,58,191,127,43,101,176,46,49,213,50,14,188,27,193,82,188,228,65,198,111,75,66,242,25,156,66,147,186,56,184,131,195,116,40,120,-77,-5.00,
13,49,39,199,14,128,45,108,68,161,220,109,227,216,188,113,37,32,175,126,133,216,157,165,45,47,33,169,53,203,234,62,87,137,46,76,239,5,82,241,63,255,23,147,152,210,182,210,196,94,164,227,-77,-10.25,
13,49,40,19,14,26,189,109,212,174,188,57,158,77,188,243,219,46,191,127,112,35,54,156,42,41,165,57,57,58,191,108,52,8,65,198,111,64,66,242,25,157,66,147,228,95,182,234,197,20,48,142,-76,-3.25,
13,49,40,50,14,27,189,120,124,81,188,53,253,157,188,153,247,62,191,127,119,168,27,190,172,77,36,252,188,153,188,215,64,115,65,198,111,56,66,242,25,158,66,148,1,210,184,17,197,194,47,102,-76,-2.50,
13,49,40,81,14,28,189,120,172,13,187,97,147,134,188,85,239,126,191,127,129,35,41,129,47,110,26,26,188,214,193,167,184,123,65,198,111,48,66,242,25,159,66,148,44,146,184,186,198,85,47,4,-77,-3.75,
13,49,41,12,14,29,189,133,86,23,59,98,10,210,188,207,218,95,191,127,95,109,53,104,44,25,169,159,169,8,189,152,58,109,65,198,111,40,66,242,25,160,66,148,70,87,184,225,198,221,46,129,-76,-4.75,
13,49,41,43,14,30,189,152,88,198,58,98,78,208,186,154,222,160,191,127,74,92,188,117,173,242,175,28,54,225,61,250,192,151,65,198,111,31,66,242,25,162,66,148,99,18,185,49,199,114,172,125,-76,-2.50,
13,49,41,74,14,31,189,163,243,180,188,131,122,92,188,46,242,0,191,127,33,116,56,140,175,29,35,185,176,245,50,168,60,88,65,198,111,21,66,242,25,163,66,148,134,187,185,238,199,215,48,83,-76,-3.75,
13,49,42,5,14,32,189,158,88,10,188,203,24,64,188,194,96,180,191,127,21,30,53,250,158,133,42,185,180,128,193,144,180,141,65,198,111,10,66,242,25,165,66,148,170,111,186,82,200,54,48,143,-77,-9.50,
13,49,42,68,14,34,189,137,187,81,188,184,44,56,188,149,125,157,191,127,80,23,47,177,163,11,36,4,183,204,193,92,178,160,65,198,110,242,66,242,25,168,66,148,241,142,184,219,200,169,47,45,-77,-5.75,
13,49,43,30,14,36,189,136,85,69,188,201,182,242,188,48,189,198,191,127,86,231,56,189,167,16,40,70,184,6,54,97,64,247,65,198,110,216,66,242,25,172,66,149,93,201,184,124,201,8,49,51,-77,-4.50,
13,49,43,62,14,37,189,124,10,8,188,155,253,227,188,242,76,154,191,127,91,46,55,122,50,23,19,253,62,53,194,190,64,112,65,198,110,202,66,242,25,174,66,149,157,172,184,92,201,57,51,76,-76,-1.75,
13,49,43,93,14,38,189,130,81,19,188,72,229,160,188,64,246,252,191,127,113,180,184,54,39,110,172,116,188,215,194,209,191,210,65,198,110,188,66,242,25,176,66,149,205,229,182,215,201,111,45,77,-76,-3.50,
13,49,44,24,14,39,189,132,154,122,188,188,164,14,189,46,159,104,191,127,41,91,63,138,168,148,40,200,189,14,196,170,71,65,65,198,110,174,66,242,25,178,66,150,22,128,182,42,201,145,56,131,-76,-5.00,
13,49,44,55,14,40,189,120,78,242,188,170,235,208,189,73,204,32,191,127,41,112,55,224,50,21,49,25,187,30,193,51,198,102,65,198,110,159,66,242,25,180,66,150,97,125,182,111,201,183,53,19,-77,-8.00,
13,49,45,49,14,43,189,125,22,182,188,133,246,237,188,53,71,104,191,127,117,254,175,0,151,16,161,193,183,129,194,99,67,24,65,198,110,112,66,242,25,187,66,151,28,114,180,179,202,40,50,46,-76,-3.75,
13,49,46,42,14,46,189,128,76,184,188,192,228,223,187,237,18,136,191,127,107,92,183,109,160,61,164,207,59,60,40,68,192,244,65,198,110,61,66,242,25,195,66,152,16,87,177,33,202,148,48,216,-76,-5.25,
13,49,46,73,14,47,189,126,247,96,188,193,234,12,188,125,241,102,186,123,102,247,251,32,40,133,33,240,55,109,52,94,188,125,65,198,110,27,66,242,25,197,66,152,95,102,174,218,202,179,50,180,-77,-7.25,
13,49,47,5,14,48,189,116,90,10,188,200,31,69,124,36,147,162,191,127,104,193,87,254,147,15,43,249,58,19,149,106,58,180,65,198,110,26,66,242,25,200,66,152,189,211,173,72,202,209,51,85,-77,-9.25,
45,49,39,180,185,117,172,229,235,133,109,101,215,0,185,169,172,216,21,127,215,225,53,164,49,100,38,1,136,37,78,200,25,61,210,85,87,152,65,242,9,203,66,153,9,205,169,166,194,94,208,6,-77,-11.75,
13,49,47,98,14,51,189,134,4,219,188,118,250,96,187,112,69,208,191,127,107,164,54,186,48,34,161,107,60,108,65,99,62,82,65,198,109,227,66,242,25,208,66,153,157,138,169,61,203,24,50,142,-76,-5.00,
13,49,49,55,14,56,189,109,73,12,188,189,141,46,188,120,232,128,191,119,112,203,56,79,50,57,154,143,56,151,188,76,242,14,141,198,253,26,75,225,34,78,232,155,17,81,244,153,107,124,53,7,-77,-11.00,
75,147,54,23,74,126,253,111,251,205,188,120,226,76,188,29,55,168,191,127,132,215,175,44,30,251,160,12,180,12,194,55,61,98,65,198,109,91,66,248,25,229,66,155,155,189,53,116,203,137,52,8,-77,-10.25,
45,57,32,196,200,26,27,16,62,142,36,3,89,138,119,35,157,228,51,50,140,17,243,112,234,178,73,173,148,35,191,77,56,134,67,253,199,187,18,17,164,153,130,92,24,107,48,127,206,12,52,215,-77,-11.75,
167,87,63,10,29,47,189,1,133,180,60,70,188,34,187,124,46,146,251,123,57,96,173,147,154,69,98,181,53,241,184,94,209,165,219,198,203,65,130,62,64,239,40,92,62,96,53,78,203,121,50,243,-77,-11.00,
12,50,26,80,14,240,59,114,219,35,103,5,243,236,77,108,120,87,37,93,203,79,48,22,59,236,163,11,180,151,64,77,56,1,65,108,11,231,200,50,213,87,18,201,36,155,178,5,76,18,50,57,-77,-10.50,
13,54,19,120,91,174,106,40,95,203,237,156,59,255,175,51,74,252,218,35,197,237,7,130,33,6,21,65,189,195,192,207,68,73,65,198,110,44,194,242,57,114,170,208,15,103,208,150,188,149,100,193,-77,-11.75,
13,50,22,21,14,161,55,61,10,242,254,6,122,236,95,137,56,76,187,155,197,215,55,50,81,123,136,21,189,124,183,140,209,252,80,163,104,252,215,246,12,115,114,156,210,115,50,68,75,194,176,214,-78,-9.75,
13,50,30,83,14,163,63,127,31,188,236,199,173,156,238,246,140,32,189,164,121,58,189,158,177,23,168,165,184,80,197,168,187,242,65,198,111,18,66,242,25,176,70,51,206,147,13,70,41,196,183,4,-77,-9.75,
13,50,24,69,14,169,63,127,45,179,188,76,63,160,188,147,166,3,189,157,172,52,5,84,45,16,35,0,187,85,194,82,190,20,65,198,111,140,66,242,25,159,66,154,49,208,54,24,75,182,181,110,-77,-9.25,
62,49,74,32,14,171,63,127,68,74,186,209,201,160,188,4,147,222,189,153,249,24,36,196,43,223,163,116,182,29,57,187,190,149,65,78,111,180,74,242,25,154,66,153,227,200,53,246,75,191,178,183,-77,-5.00,
13,50,25,62,14,172,63,127,57,142,187,238,134,176,187,249,5,159,249,221,202,192,48,221,34,138,38,212,179,162,190,255,54,68,65,198,111,200,194,250,25,31,66,255,194,226,54,124,75,185,179,84,-77,-6.00,
13,52,19,57,110,111,63,127,49,25,42,36,75,192,187,164,9,238,69,33,250,31,55,6,54,88,163,119,51,7,71,32,118,109,65,199,114,13,70,59,138,6,114,89,126,135,56,63,67,151,237,228,-77,-6.00,
13,50,27,18,14,177,63,127,28,170,188,43,144,180,188,10,109,34,189,168,50,178,182,124,37,109,165,6,225,34,173,75,194,213,65,198,112,45,66,242,25,137,6,153,93,57,59,85,75,169,176,139,-77,-7.00,
13,50,27,49,14,178,63,127,19,1,187,218,68,104,188,144,229,29,181,161,168,118,208,54,176,56,32,48,46,223,182,34,56,159,65,70,112,129,75,193,26,183,66,153,62,133,56,63,75,161,172,100,-77,-7.50,
111,52,158,180,203,169,107,118,55,25,187,136,35,208,188,21,18,68,113,240,196,222,248,137,49,212,32,34,59,123,59,52,190,93,65,70,124,114,26,199,122,46,66,153,9,0,56,72,75,141,175,101,-77,-8.50,
13,50,29,36,14,184,63,127,23,59,188,41,136,116,187,139,241,42,189,170,237,74,175,178,162,118,164,145,53,185,200,204,63,67,17,198,112,185,66,242,25,119,66,152,200,104,56,195,75,147,107,104,-77,-8.75,
13,50,29,98,14,186,63,126,249,67,188,188,211,132,187,191,46,135,189,176,157,138,183,90,176,101,162,32,181,194,190,55,64,177,65,198,112,223,130,62,21,177,66,152,140,185,26,201,41,53,146,137,-77,-11.00,
13,50,30,91,14,189,63,126,237,232,188,204,249,160,187,152,40,216,189,179,181,62,182,58,170,186,162,25,186,131,197,163,197,155,65,198,113,21,66,242,25,106,66,184,67,70,56,53,74,170,178,4,-77,-8.25,
13,50,31,22,14,190,63,126,249,62,59,99,70,224,97,115,215,34,141,182,198,113,49,247,179,41,37,55,150,133,55,77,71,31,17,198,113,39,66,242,25,104,66,152,20,45,56,55,74,130,32,84,-77,-7.75,
13,50,31,53,14,191,63,126,235,133,188,134,141,92,188,62,49,100,189,183,91,70,180,246,40,86,165,82,180,200,191,65,192,153,65,198,113,56,66,242,25,102,66,151,234,179,56,128,74,14,117,122,-77,-8.75,
13,50,32,16,14,193,63,126,244,245,187,223,163,160,188,76,206,74,189,182,97,36,179,22,175,82,37,105,50,20,186,113,192,183,65,198,113,90,66,242,25,97,66,151,153,114,55,234,74,76,175,157,-75,-2.50,
13,50,32,46,14,194,63,126,249,33,186,84,131,192,214,139,156,107,189,180,48,5,36,155,169,255,32,236,183,230,61,95,191,57,65,198,113,106,66,242,25,95,66,151,116,99,55,239,74,69,168,150,-77,-5.75,
13,50,32,78,14,195,63,127,7,37,188,19,146,236,188,142,10,199,189,173,195,36,53,59,39,179,168,101,184,192,51,104,190,43,65,198,113,122,66,242,25,93,66,151,90,167,55,180,74,47,172,158,-77,-7.00,
13,50,33,9,14,196,63,127,18,129,187,235,148,248,188,84,247,115,189,171,134,60,42,92,178,134,38,53,186,179,60,164,65,196,65,198,113,138,66,242,25,91,66,151,56,95,55,73,74,51,174,139,-75,-1.25,
13,50,33,40,14,197,63,127,11,230,188,88,237,188,188,85,33,78,189,172,119,58,178,207,44,175,157,101,44,194,58,16,64,1,65,198,113,155,66,242,25,89,70,223,107,241,75,238,73,49,26,25,-77,-11.00,
13,50,33,71,14,198,63,127,25,189,187,192,79,152,188,132,25,203,189,167,228,204,48,127,162,20,38,2,58,139,173,0,62,1,65,198,113,170,66,242,25,87,66,151,6,52,197,219,41,181,56,117,-77,-10.75,
13,178,170,98,152,199,5,127,31,208,188,90,199,40,187,169,175,33,189,166,178,196,179,34,36,244,37,64,180,107,187,53,68,193,65,198,113,187,66,242,25,84,66,150,234,188,55,193,74,57,179,165,-77,-7.50,
88,98,46,45,14,200,63,127,28,108,186,220,51,32,188,41,201,191,189,169,43,226,51,187,172,128,160,35,61,235,60,60,182,160,193,198,113,203,66,242,25,82,66,150,193,247,55,155,74,45,171,0,-75,-0.75,
13,50,35,26,14,203,63,127,29,177,60,10,120,144,188,28,137,62,189,168,8,204,44,126,49,28,164,54,59,35,65,151,194,85,65,198,113,252,66,242,25,76,66,150,104,252,56,119,74,60,172,76,-77,-7.75,
13,50,35,57,14,204,63,127,22,224,187,129,82,48,188,89,80,42,189,170,63,65,178,119,177,177,34,79,47,123,55,44,193,75,65,198,114,12,66,242,25,74,66,150,74,61,56,163,74,75,171,112,-77,-7.25,
13,50,35,89,14,205,63,127,30,65,187,130,7,216,188,11,155,72,189,168,192,52,44,78,42,23,160,108,188,53,184,55,196,7,65,198,114,29,130,171,76,130,66,150,58,5,56,190,74,70,164,139,-76,-2.75,
13,50,36,20,14,206,63,127,29,107,188,1,45,16,187,137,152,219,189,169,44,144,179,76,42,129,167,50,176,228,180,197,56,137,65,198,114,45,66,242,25,69,66,150,29,200,56,232,74,76,172,126,-76,-3.50,
13,50,36,51,14,207,63,127,12,86,187,182,5,224,188,30,140,192,189,174,244,206,51,240,171,88,37,109,58,13,186,106,67,220,65,198,114,61,66,145,121,67,66,150,4,191,57,16,74,72,170,150,-73,0.25,
13,50,36,82,14,208,63,87,11,167,179,75,239,176,188,88,113,250,189,174,169,106,156,77,164,186,36,65,184,13,189,58,63,160,65,198,114,78,66,242,25,65,66,149,240,247,57,97,74,83,164,213,-70,3.50,
13,50,37,13,14,209,63,127,15,146,187,82,98,80,188,91,175,114,189,172,251,79,50,145,48,90,157,237,180,44,60,86,63,134,65,198,114,94,66,242,25,63,66,149,247,63,57,52,74,84,33,168,-73,0.75,
13,50,37,44,14,210,63,127,25,132,187,26,84,208,188,124,201,173,189,168,156,16,47,249,166,73,38,64,59,186,50,52,59,123,65,198,114,111,66,242,25,60,66,149,221,20,57,38,74,85,38,182,-74,0.25,
13,50,37,75,14,211,63,127,26,145,57,89,167,0,180,107,28,136,189,169,93,51,43,106,176,56,164,31,177,209,64,170,186,101,65,10,114,128,78,242,25,58,66,149,214,114,56,212,74,95,30,107,-74,-0.25,
13,50,38,6,14,212,63,127,25,243,186,181,30,128,191,109,152,12,189,168,208,160,49,28,39,249,31,87,217,189,236,59,189,48,65,198,114,145,66,242,25,56,66,149,197,190,56,221,74,94,165,24,-75,-3.25,
13,50,38,37,14,213,63,127,45,233,58,193,234,160,188,128,80,94,189,160,168,136,163,179,41,74,36,227,54,0,174,133,190,5,65,198,114,162,66,242,25,54,66,149,185,219,57,24,74,99,169,235,-72,2.75,
13,50,38,69,14,214,63,127,52,48,187,226,106,112,188,9,128,234,189,159,218,46,171,88,36,191,38,128,51,184,184,213,188,24,65,198,114,178,66,242,25,51,66,149,152,253,56,230,74,90,175,136,-71,3.75,
13,50,39,0,14,215,63,127,44,91,188,13,105,240,187,27,8,254,189,163,111,243,42,253,168,186,19,82,181,141,51,251,53,154,65,198,114,195,66,242,25,49,66,149,134,90,56,164,74,57,175,235,-74,-0.25,
13,50,39,31,14,216,63,127,21,68,188,124,142,212,187,175,226,246,189,169,237,195,47,165,48,123,167,70,47,52,165,3,61,153,65,198,114,211,66,242,25,47,66,149,113,184,56,230,74,19,176,188,-72,2.75,
13,50,39,62,14,217,63,127,13,115,188,134,104,100,188,64,31,202,189,171,32,220,174,68,173,102,33,232,179,52,40,50,62,215,65,198,114,227,66,242,25,45,66,149,99,237,56,145,73,247,175,150,-69,4.00,
13,50,39,93,14,218,63,127,13,167,187,4,195,240,188,151,57,27,189,171,206,20,20,13,44,84,166,172,50,125,178,189,192,133,65,198,114,243,66,242,25,43,66,149,85,237,56,69,73,232,172,29,-72,2.50,
13,50,40,24,14,219,63,127,28,164,186,213,185,0,188,201,91,132,189,162,207,146,177,65,174,3,45,58,61,225,169,66,196,9,65,198,115,2,66,242,25,41,66,149,64,171,55,197,73,214,175,190,-71,3.00,
13,50,40,55,14,220,63,127,53,48,188,27,155,236,188,70,24,93,187,156,67,226,176,109,42,50,31,86,186,91,54,82,66,217,65,198,115,18,66,242,25,39,66,149,39,38,54,198,73,202,204,161,-76,-5.25,
13,50,40,86,14,221,63,127,59,213,187,115,232,240,188,140,194,226,189,154,51,136,53,235,173,145,40,197,53,141,50,53,62,55,65,198,115,33,66,242,25,37,66,149,24,16,54,12,73,170,165,23,-72,1.25,
13,50,41,17,14,222,63,127,66,28,187,202,2,128,188,92,166,48,189,152,207,162,181,45,43,249,167,60,179,74,55,118,176,153,65,198,115,48,66,242,25,34,66,149,3,82,53,131,73,152,170,109,-69,3.75,
13,50,41,48,14,223,63,127,68,129,188,102,165,180,188,62,33,245,189,150,59,151,47,202,176,198,40,186,44,143,182,234,185,175,65,198,115,62,66,242,25,32,66,148,232,80,52,96,121,110,167,163,-75,-2.50,
13,50,41,80,14,224,63,127,92,52,188,50,57,104,187,215,122,248,189,142,89,202,173,210,44,11,28,244,59,198,56,64,57,37,65,198,115,76,66,242,25,30,66,148,197,72,52,194,73,77,175,55,-70,3.25,
13,50,42,11,14,225,63,127,84,48,188,63,134,52,58,35,54,128,189,146,64,228,44,167,48,221,164,31,168,11,62,148,59,7,65,198,115,90,66,242,25,29,66,148,171,242,82,243,79,41,172,77,-74,-1.50,
13,50,42,42,14,226,63,127,60,5,188,96,105,228,58,97,149,168,189,155,192,98,46,78,40,42,171,71,184,162,191,217,61,205,65,198,115,103,66,242,25,27,66,148,135,44,52,84,73,7,167,206,-67,4.75,
13,50,42,73,13,239,63,127,53,183,188,10,201,52,186,181,166,0,141,159,211,159,53,2,174,55,160,243,191,53,187,20,192,153,65,198,117,117,66,242,21,25,34,52,102,177,52,137,72,226,62,182,-65,4.25,
13,50,43,4,14,228,63,127,47,124,188,20,247,164,187,88,78,112,189,162,9,199,176,36,174,205,166,4,58,4,186,137,194,229,65,198,115,129,66,242,25,23,66,148,55,225,52,198,72,196,173,60,-71,2.25,
13,50,43,35,14,229,63,127,35,5,188,111,35,252,187,145,37,203,189,165,30,174,170,128,176,241,161,71,59,24,186,142,184,57,65,198,115,142,66,242,25,22,66,148,11,109,52,194,72,156,173,253,-69,4.00,
13,50,43,66,14,230,63,127,28,207,188,5,81,224,187,201,148,183,189,169,25,52,52,76,176,82,153,117,175,115,188,190,60,218,65,198,115,154,66,242,25,20,66,147,220,31,52,198,72,120,172,124,-66,5.25,
13,50,43,97,14,231,63,127,26,82,188,33,56,56,187,48,44,84,189,170,10,100,45,182,36,247,163,34,187,116,195,48,193,245,65,198,115,166,66,242,25,18,66,147,190,177,53,44,72,91,163,230,-64,5.50,
13,50,44,28,14,232,63,127,11,188,188,94,110,188,57,49,182,32,189,174,117,172,184,96,169,175,171,112,190,173,194,127,189,92,65,198,115,177,66,242,25,17,66,147,164,232,53,11,72,54,175,179,-67,5.00,
13,50,44,59,14,233,63,126,247,123,188,147,245,0,186,61,116,128,189,180,14,188,46,149,44,107,29,49,185,155,194,173,193,183,65,198,115,188,66,242,25,15,66,147,140,69,53,247,71,250,173,76,-57,6.50,
13,50,44,91,14,234,63,126,234,202,188,35,0,240,187,48,76,212,189,186,252,138,178,91,170,6,164,94,53,84,192,20,194,18,65,198,115,198,66,242,25,14,66,147,98,209,53,55,71,166,173,34,-71,3.25,
13,50,45,22,14,235,63,126,230,79,188,165,163,176,57,146,231,80,189,185,27,248,47,115,41,213,39,180,180,147,191,125,48,175,65,198,115,208,66,242,25,13,66,147,74,63,53,235,71,32,168,232,-65,5.50,
13,50,45,53,14,236,63,126,228,250,188,67,211,156,60,30,156,250,189,187,129,106,176,52,44,86,167,220,178,19,192,176,60,44,65,198,115,217,66,242,25,12,66,147,37,70,53,180,70,173,171,8,-58,5.75,
13,50,45,84,14,237,63,126,157,39,188,145,63,12,60,88,104,146,189,207,246,22,169,40,169,170,170,179,176,211,194,253,188,189,65,198,115,226,66,242,25,11,66,146,250,250,53,233,70,49,174,177,-61,6.50,
13,50,46,15,14,238,63,126,86,86,188,133,31,2,60,68,227,251,189,229,86,17,34,155,44,239,174,31,43,73,189,217,61,32,65,198,115,234,66,242,25,10,66,146,208,116,54,180,69,175,170,253,-53,6.25,
13,50,46,46,14,239,63,125,255,53,188,181,220,78,60,47,118,128,189,250,170,71,176,119,160,83,167,155,184,174,195,45,186,184,65,198,115,241,66,242,25,9,66,146,176,195,55,44,69,46,175,71,-59,6.25,
13,50,46,77,14,240,63,125,214,145,188,121,167,232,60,134,17,28,190,2,207,1,176,117,30,178,160,203,57,11,55,27,60,224,65,198,115,248,66,242,25,8,66,146,143,178,55,25,68,169,171,183,-57,6.25,
13,50,47,8,14,241,63,125,69,202,188,132,199,208,60,205,216,50,190,17,230,8,46,239,169,123,178,202,190,61,192,65,183,208,65,198,115,254,66,242,25,7,66,146,112,217,53,105,68,10,171,31,-57,6.00,
13,50,47,39,14,242,63,123,184,82,188,153,156,238,187,188,196,244,190,57,97,24,170,92,180,95,179,8,177,92,189,221,62,104,65,198,116,4,66,242,25,7,66,146,80,35,53,216,67,124,21,62,-59,6.00,
13,50,47,70,14,243,63,123,120,190,188,223,69,94,189,5,15,109,190,58,197,29,169,215,179,99,45,247,180,234,190,247,185,160,65,198,116,8,66,242,25,6,66,146,59,130,54,122,66,205,171,206,-54,6.00,
13,50,48,1,14,244,63,124,100,22,188,220,227,22,189,51,21,96,190,35,16,166,46,35,176,169,50,240,191,172,194,219,62,248,65,198,116,13,66,242,25,6,66,146,20,137,52,12,66,58,161,195,-57,6.25,
13,50,48,32,14,245,63,125,158,148,188,130,217,88,189,78,133,44,190,0,93,144,170,68,42,166,50,231,49,193,53,63,189,138,65,198,116,17,66,242,25,6,66,145,244,8,49,56,65,198,163,22,-57,6.75,
13,50,48,64,14,246,63,127,11,244,188,11,40,196,189,24,73,230,189,158,94,167,177,21,46,207,52,56,191,80,58,139,186,212,65,198,116,20,66,242,25,5,66,145,210,111,32,4,65,170,167,11,-52,6.25,
13,50,48,94,14,247,63,127,190,195,188,48,191,152,188,156,75,242,189,31,41,240,165,107,45,92,51,81,187,0,192,186,183,231,65,198,116,23,66,242,25,5,66,145,182,19,175,192,65,94,169,170,-53,6.00,
13,50,49,26,14,248,63,127,209,22,188,29,200,60,188,142,164,215,189,3,209,41,176,36,168,239,8,152,57,154,57,71,180,251,65,198,116,26,66,242,25,4,66,145,150,231,179,53,65,42,170,239,-46,7.00,
13,50,49,57,14,249,63,127,218,71,188,123,210,180,188,54,124,0,188,230,95,230,168,79,47,244,39,174,49,8,61,108,60,147,65,198,116,29,66,242,25,4,66,145,116,166,173,167,64,190,169,184,-42,5.75,
13,50,49,88,14,250,63,127,234,131,188,32,52,24,60,176,99,251,188,33,53,232,40,211,51,62,39,239,56,244,184,245,191,252,65,198,116,32,66,242,25,4,66,145,90,141,169,128,64,93,172,172,-44,5.75,
13,50,50,19,14,251,63,127,143,166,188,21,121,24,61,22,84,232,189,54,250,224,178,3,175,99,182,85,181,192,182,216,52,227,65,198,116,34,66,242,25,3,66,145,92,108,176,67,64,35,165,140,-52,6.50,
13,50,50,50,14,252,63,125,160,35,188,60,52,172,58,175,156,232,190,10,164,115,172,68,180,172,184,241,61,125,53,166,177,15,65,198,116,37,66,242,25,3,66,145,70,220,167,65,64,3,167,217,-45,6.50,
13,50,50,81,14,253,63,123,172,117,188,139,143,246,188,217,254,190,190,56,166,54,172,171,177,75,176,187,56,188,183,200,191,24,65,198,116,39,66,242,25,3,66,145,55,29,50,235,63,114,169,28,-48,6.50,
13,50,51,12,14,254,63,124,14,233,188,122,61,60,189,36,197,56,190,45,127,31,45,132,176,12,50,204,51,164,53,233,45,132,65,198,116,41,66,242,25,2,66,145,28,171,49,233,62,55,156,152,-57,6.50,
13,50,51,43,14,255,63,125,218,251,188,178,34,248,189,36,1,202,189,247,136,83,43,157,170,17,54,32,187,108,193,150,53,110,65,198,116,43,66,242,25,2,66,145,13,46,41,224,61,104,164,17,-55,6.00,
13,50,51,74,15,0,63,127,125,247,188,14,105,104,189,15,241,188,189,83,5,35,40,211,46,9,55,65,52,162,187,157,190,75,65,198,116,45,66,242,25,2,66,144,252,217,169,97,60,170,167,45,-48,6.00,
13,50,52,5,15,1,63,127,232,133,188,45,30,32,188,117,30,5,60,159,236,186,176,219,50,76,55,26,176,252,193,15,189,64,65,198,116,46,66,242,25,2,66,144,225,183,165,100,60,8,169,219,-45,6.00,
13,50,52,36,15,2,63,127,75,88,187,146,212,96,60,73,57,205,61,149,151,224,44,181,49,180,52,46,48,164,186,22,170,47,65,198,116,47,66,242,25,2,66,144,217,178,158,100,57,235,158,26,-44,1.75,
13,50,52,67,15,3,63,126,195,66,187,205,13,216,60,225,61,199,61,192,163,190,30,164,168,96,171,123,185,74,51,38,176,42,65,198,116,48,66,242,25,2,66,144,229,251,177,101,55,51,44,21,-41,6.50,
13,50,52,99,15,4,63,126,214,180,187,167,146,128,60,158,207,171,61,190,123,66,45,235,32,36,30,226,46,18,190,170,184,130,65,198,116,48,66,242,25,1,66,144,217,12,174,192,52,105,17,197,-41,6.00,
13,50,53,30,15,5,63,126,216,10,187,216,27,144,60,99,119,206,61,191,218,65,42,136,158,178,164,207,172,78,182,78,53,90,65,198,116,48,66,242,25,1,66,144,200,62,169,209,45,228,34,45,-43,6.25,
13,50,53,61,15,6,63,126,219,3,186,110,147,192,59,177,94,241,61,193,29,74,36,52,172,97,154,108,55,83,55,144,180,89,65,198,116,48,66,242,25,1,66,144,190,24,172,10,46,69,129,97,-47,6.50,
13,50,53,92,15,7,63,126,219,77,187,10,234,224,57,168,234,68,61,193,76,35,154,26,30,17,31,212,54,142,186,169,180,46,65,198,116,48,66,242,25,1,66,144,177,236,32,107,45,30,34,10,-42,6.50,
13,50,54,23,15,8,63,126,221,93,186,166,248,192,186,144,192,28,61,192,162,70,33,177,157,175,37,159,42,22,177,235,186,19,65,198,116,48,66,242,25,1,66,144,181,245,33,88,44,240,33,147,-39,5.25,
13,50,54,54,15,9,63,126,219,158,185,150,93,0,187,165,27,28,61,192,247,142,38,235,17,149,35,173,51,31,55,242,185,206,65,198,116,47,66,242,25,1,66,144,160,202,38,70,43,153,162,157,-39,6.00,
13,50,54,85,15,10,63,126,218,194,56,236,184,0,187,196,248,82,61,193,34,252,168,15,34,233,24,60,60,220,189,150,190,72,65,198,116,47,66,242,25,1,66,144,145,208,45,83,42,219,161,225,-38,6.50,
13,50,55,16,15,11,63,126,217,70,186,20,101,0,186,155,229,130,61,193,254,174,46,88,39,209,166,75,45,157,185,31,28,215,65,198,116,47,66,242,25,2,66,144,132,228,48,6,38,160,155,99,-38,6.00,
13,50,55,47,15,12,63,126,220,50,57,85,184,0,186,130,145,218,61,193,10,138,161,150,168,136,135,73,174,180,188,57,188,219,65,198,116,47,66,242,25,2,66,144,144,151,43,165,36,155,163,86,-39,6.00,
13,50,55,78,15,13,63,126,214,91,57,162,145,0,188,47,119,91,61,193,187,96,153,181,166,219,155,134,182,121,188,0,172,152,65,198,116,47,66,242,25,2,66,144,130,51,44,211,159,26,168,101,-38,6.00,
13,50,56,9,15,14,63,126,210,226,58,221,101,192,188,115,172,213,61,193,176,218,42,100,162,149,164,45,180,152,59,75,187,204,65,198,116,47,66,242,25,2,66,144,114,22,47,192,28,48,168,87,-38,6.00,
13,50,56,41,15,15,63,126,210,172,57,232,109,128,188,113,155,203,61,193,212,102,168,234,39,155,38,67,178,192,63,8,53,147,65,198,116,47,66,242,25,2,66,144,118,192,48,181,34,174,157,48,-39,5.50,
13,50,56,72,15,16,63,126,212,82,58,120,157,192,188,86,116,148,61,193,199,219,169,35,39,144,33,228,183,180,185,252,180,90,65,198,116,47,66,242,25,2,66,144,138,71,48,213,164,183,35,226,-39,6.00,
13,50,57,3,15,17,63,126,211,108,58,148,209,224,188,65,171,58,61,194,105,74,35,236,21,170,28,162,61,203,187,163,188,155,65,198,116,47,66,242,25,2,66,144,134,115,49,70,164,184,36,237,-38,6.75,
13,50,57,34,15,18,63,126,211,51,58,142,135,96,188,92,141,159,61,194,9,46,36,17,164,6,170,43,186,224,61,96,55,43,65,198,116,47,66,242,25,2,66,144,129,245,49,24,165,238,36,199,-38,6.25,
13,50,57,65,15,19,63,126,210,118,58,176,15,0,188,75,18,107,61,194,145,202,168,217,39,177,39,159,48,71,60,84,181,165,65,198,116,47,66,242,25,2,66,144,128,77,50,64,165,39,30,66,-39,6.00,
13,50,57,96,15,20,63,126,212,160,57,69,41,0,188,28,26,30,61,194,142,176,35,219,40,252,158,213,177,161,61,57,185,59,65,198,116,47,66,242,25,2,66,144,137,184,50,81,167,111,25,64,-38,6.00,
13,50,58,27,15,21,63,126,213,37,57,66,151,0,188,1,125,204,61,194,177,75,167,222,35,104,154,59,166,62,55,46,188,120,65,198,116,47,66,242,25,2,66,144,140,20,50,111,169,94,34,28,-38,6.25,
13,50,58,58,15,22,63,126,213,32,185,158,189,128,187,209,90,130,61,194,237,202,164,110,166,247,154,119,168,20,62,159,161,128,65,198,116,47,66,242,25,2,66,144,134,18,50,179,170,19,160,149,-38,6.25,
13,50,58,89,15,23,63,126,212,240,57,184,99,128,187,209,205,33,61,194,253,196,33,164,154,93,162,88,177,93,182,188,173,6,65,198,116,47,66,242,25,2,66,144,123,174,50,205,171,81,164,175,-38,5.50,
13,50,59,20,15,24,63,126,211,166,58,111,198,0,187,216,136,20,61,195,95,140,170,82,153,31,163,253,185,29,60,166,185,74,65,198,116,47,66,242,25,2,66,144,143,35,50,101,171,49,10,169,-38,6.25,
13,50,59,51,15,25,63,126,210,171,58,144,151,160,187,228,133,230,61,195,162,229,161,85,160,53,164,207,55,173,188,210,184,59,65,198,116,47,66,242,25,2,66,144,134,217,50,226,172,113,29,154,-39,6.50,
13,50,59,82,15,26,63,126,210,2,57,237,91,128,188,1,156,58,61,195,183,62,168,103,31,81,40,184,52,71,185,61,48,175,65,198,116,47,66,242,25,2,66,144,127,46,50,252,172,226,160,77,-37,6.50,
13,51,0,14,15,27,63,126,209,186,182,206,128,0,188,15,87,80,61,195,168,38,169,232,139,172,37,110,35,254,59,116,59,209,65,198,116,47,66,242,25,2,66,144,133,96,50,235,172,30,30,13,-37,6.00,
13,51,0,44,15,28,63,126,205,216,58,151,116,160,188,31,81,96,61,196,182,130,33,111,24,93,168,92,179,27,57,159,186,64,65,198,116,46,66,242,25,2,66,144,148,234,50,109,172,17,35,174,-38,6.25,
13,51,0,76,15,29,63,126,205,63,58,188,123,32,188,37,225,121,61,196,208,34,21,198,161,202,165,217,30,136,170,24,51,72,65,198,116,46,66,242,25,2,66,144,141,68,50,216,172,203,153,40,-38,5.75,
13,51,1,7,15,30,63,126,204,31,58,69,31,128,188,54,4,208,61,196,248,6,166,64,159,148,165,217,43,242,60,188,48,49,65,198,116,46,66,242,25,2,66,144,134,81,50,208,172,85,162,77,-40,6.75,
13,51,1,38,15,31,63,126,202,102,58,86,253,192,188,80,153,179,61,197,29,146,151,109,164,90,169,114,184,2,56,239,186,137,65,198,116,46,66,242,25,2,66,144,125,72,50,81,172,126,157,104,-42,6.00,
13,51,1,69,15,32,63,126,201,186,58,91,195,192,188,104,166,105,61,196,232,212,158,177,32,47,165,15,180,141,181,100,54,208,65,198,116,46,66,242,25,2,66,144,142,148,50,117,172,245,144,54,-44,6.00,
13,51,2,0,15,33,63,126,202,102,56,152,44,0,188,89,232,110,61,196,246,214,170,73,36,23,37,98,56,32,188,45,174,27,65,198,116,46,66,242,25,2,66,144,130,69,51,171,173,79,160,181,-41,-0.75,
13,51,2,31,15,34,63,126,202,160,58,37,33,64,188,78,105,120,61,197,20,66,42,129,155,16,40,130,175,196,186,217,64,191,65,198,116,46,66,242,25,2,66,144,115,128,51,44,172,241,27,233,-43,6.25,
13,51,2,62,15,35,63,126,199,212,57,157,219,0,188,75,142,214,61,198,7,220,168,248,164,96,167,238,180,45,56,129,50,236,65,198,116,46,66,242,25,2,66,144,112,8,50,248,172,152,164,24,-44,6.50,
13,51,2,93,15,36,63,126,200,95,57,18,66,0,188,65,8,166,61,198,5,183,168,194,30,216,28,45,178,13,187,127,47,127,65,198,116,46,66,242,25,2,66,144,123,32,50,115,172,236,160,175,-44,6.00,
13,51,3,24,15,37,63,126,200,82,184,170,178,0,188,62,69,29,61,198,19,128,28,178,30,165,35,4,38,242,188,59,62,213,65,198,116,46,66,242,25,2,66,144,117,221,50,195,172,157,28,172,-42,6.25,
13,51,3,55,15,38,63,126,198,67,57,190,82,0,188,60,89,229,61,198,196,240,164,222,158,240,168,234,52,217,183,167,185,35,65,198,116,46,66,242,25,2,66,144,103,102,50,248,172,208,160,36,-42,6.25,
13,51,3,87,15,39,63,126,197,161,58,140,25,224,188,64,252,178,61,198,227,222,166,255,26,67,35,37,53,96,182,53,40,236,65,198,116,46,66,242,25,2,66,144,93,52,50,255,172,250,165,197,-42,6.25,
13,51,4,17,15,40,63,126,196,68,58,155,54,224,188,80,192,108,61,199,19,90,168,244,159,24,156,226,175,120,60,23,56,65,65,198,116,46,66,242,25,2,66,144,105,161,50,215,172,55,164,161,-42,6.25,
13,51,4,49,15,41,63,126,196,104,58,242,35,128,188,70,235,5,61,199,42,190,161,120,34,188,160,244,52,200,184,248,187,157,65,198,116,47,66,242,25,2,66,144,96,192,51,120,172,156,164,192,-42,6.00,
